[
  {
    "StopId": 1,
    "Code": "Q6 095",
    "Name": "Chu Văn An",
    "StopType": "Trụ dừng",
    "Zone": "Quận 6",
    "Ward": null,
    "AddressNo": "27",
    "Street": "Tháp Mười",
    "SupportDisability": "",
    "Status": "Đang khai thác",
    "Lng": 106.652554,
    "Lat": 10.750232,
    "Search": "CVA 27 TM",
    "Routes": "07, 10, 150, 25, 56, 91"
  },
  {
    "StopId": 2,
    "Code": "Q5 016",
    "Name": "Chợ Kim Biên",
    "StopType": "Trụ dừng",
    "Zone": "Quận 5",
    "Ward": null,
    "AddressNo": "11-12",
    "Street": "Hải Thượng Lãn Ông",
    "SupportDisability": "",
    "Status": "Đang khai thác",
    "Lng": 106.655075,
    "Lat": 10.750732,
    "Search": "CKB 11-12 HTLO",
    "Routes": "01, 07, 10, 25, 39, 47, 56"
  },
  {
    "StopId": 3,
    "Code": "Q5 011",
    "Name": "Bưu điện Quận 5",
    "StopType": "Ô sơn",
    "Zone": "Quận 5",
    "Ward": null,
    "AddressNo": "14-16",
    "Street": "Châu Văn Liêm",
    "SupportDisability": "",
    "Status": "Đang khai thác",
    "Lng": 106.659203,
    "Lat": 10.751368,
    "Search": "BdQ5 14-16 CVL",
    "Routes": "01, 07, 08, 10, 45, 56, 62"
  },
  {
    "StopId": 4,
    "Code": "Q5 055",
    "Name": "Lương Nhữ Học",
    "StopType": "Trụ dừng",
    "Zone": "Quận 5",
    "Ward": null,
    "AddressNo": "727",
    "Street": "Nguyễn Trãi",
    "SupportDisability": "",
    "Status": "Đang khai thác",
    "Lng": 106.660418,
    "Lat": 10.752962,
    "Search": "LNH 727 NT",
    "Routes": "01, 91"
  },
  {
    "StopId": 5,
    "Code": "Q5 012",
    "Name": "Rạp Đại Quang",
    "StopType": "Nhà chờ",
    "Zone": "Quận 5",
    "Ward": null,
    "AddressNo": "68",
    "Street": "Châu Văn Liêm",
    "SupportDisability": "",
    "Status": "Đang khai thác",
    "Lng": 106.658937,
    "Lat": 10.752566,
    "Search": "RDQ 68 CVL",
    "Routes": "01, 07, 08, 10, 45, 56, 62"
  },
  {
    "StopId": 6,
    "Code": "Q5 059",
    "Name": "Ngô Quyền",
    "StopType": "Trụ dừng",
    "Zone": "Quận 5",
    "Ward": null,
    "AddressNo": "593",
    "Street": "Nguyễn Trãi",
    "SupportDisability": "",
    "Status": "Đang khai thác",
    "Lng": 106.666882,
    "Lat": 10.754,
    "Search": "NQ 593 NT",
    "Routes": "01, 91"
  },
  {
    "StopId": 7,
    "Code": "Q5 056",
    "Name": "Triệu Quang Phục",
    "StopType": "Trụ dừng",
    "Zone": "Quận 5",
    "Ward": null,
    "AddressNo": "695",
    "Street": "Nguyễn Trãi",
    "SupportDisability": "",
    "Status": "Đang khai thác",
    "Lng": 106.662081,
    "Lat": 10.753088,
    "Search": "TQP 695 NT",
    "Routes": "01, 91"
  },
  {
    "StopId": 8,
    "Code": "BX14",
    "Name": "Bến xe buýt Chợ Lớn",
    "StopType": "Bến xe",
    "Zone": "Quận 5",
    "Ward": null,
    "AddressNo": "GA HKXB CHO LON",
    "Street": "Lê Quang Sung",
    "SupportDisability": "",
    "Status": "Đang khai thác",
    "Lng": 106.652565,
    "Lat": 10.751253,
    "Search": "BxbCL GHCL LQS",
    "Routes": "01, 05, 06, 07, 09, 150, 23, 47, 56, 62-1, 62-10, 62-7, 62-8, 81, 94"
  },
  {
    "StopId": 9,
    "Code": "Q5 057",
    "Name": "Đại học Sư phạm Thể dục thể thao",
    "StopType": "Nhà chờ",
    "Zone": "Quận 5",
    "Ward": null,
    "AddressNo": "639",
    "Street": "Nguyễn Trãi",
    "SupportDisability": "",
    "Status": "Đang khai thác",
    "Lng": 106.663486,
    "Lat": 10.753341,
    "Search": "DhSpTdtt 639 NT",
    "Routes": "01, 91"
  },
  {
    "StopId": 10,
    "Code": "Q5 060",
    "Name": "Chung cư Nguyễn Trãi",
    "StopType": "Trụ dừng",
    "Zone": "Quận 5",
    "Ward": null,
    "AddressNo": "549",
    "Street": "Nguyễn Trãi",
    "SupportDisability": "",
    "Status": "Đang khai thác",
    "Lng": 106.668572,
    "Lat": 10.754337,
    "Search": "CcNT 549 NT",
    "Routes": "01, 91"
  },
  {
    "StopId": 11,
    "Code": "Q5 072",
    "Name": "Siêu thị Điện máy",
    "StopType": "Trụ dừng",
    "Zone": "Quận 5",
    "Ward": null,
    "AddressNo": "99",
    "Street": "Nguyễn Tri Phương",
    "SupportDisability": "",
    "Status": "Đang khai thác",
    "Lng": 106.669418,
    "Lat": 10.754023,
    "Search": "StDm 99 NTP",
    "Routes": "59"
  },
  {
    "StopId": 12,
    "Code": "Q5 058",
    "Name": "Siêu thị Điện máy Chợ Lớn",
    "StopType": "Trụ dừng",
    "Zone": "Quận 5",
    "Ward": null,
    "AddressNo": "635B",
    "Street": "Nguyễn Trãi",
    "SupportDisability": "",
    "Status": "Đang khai thác",
    "Lng": 106.664913,
    "Lat": 10.753626,
    "Search": "StDmCL 635B NT",
    "Routes": "01, 91"
  },
  {
    "StopId": 14,
    "Code": "Q5 099",
    "Name": "Nhà Văn hóa Quận 5",
    "StopType": "Trụ dừng",
    "Zone": "Quận 5",
    "Ward": null,
    "AddressNo": "388",
    "Street": "Trần Phú",
    "SupportDisability": "",
    "Status": "Đang khai thác",
    "Lng": 106.668588,
    "Lat": 10.753025,
    "Search": "NVhQ5 388 TP",
    "Routes": "01, 59"
  },
  {
    "StopId": 15,
    "Code": "Q5 096",
    "Name": "Bệnh viện Chấn Thương Chỉnh hình",
    "StopType": "Nhà chờ",
    "Zone": "Quận 5",
    "Ward": null,
    "AddressNo": "929",
    "Street": "Trần Hưng Đạo",
    "SupportDisability": "",
    "Status": "Đang khai thác",
    "Lng": 106.678271,
    "Lat": 10.754421,
    "Search": "BvCTCh 929 THD",
    "Routes": "01"
  },
  {
    "StopId": 18,
    "Code": "Q1 131",
    "Name": "Chợ Nanci",
    "StopType": "Trụ dừng",
    "Zone": "Quận 1",
    "Ward": null,
    "AddressNo": "559-561",
    "Street": "Trần Hưng Đạo",
    "SupportDisability": "",
    "Status": "Đang khai thác",
    "Lng": 106.685883,
    "Lat": 10.75699,
    "Search": "CN 559-561 THD",
    "Routes": "01, 139, 152"
  },
  {
    "StopId": 19,
    "Code": "Q5 097",
    "Name": "Trần Bình Trọng",
    "StopType": "Trụ dừng",
    "Zone": "Quận 5",
    "Ward": null,
    "AddressNo": "813",
    "Street": "Trần Hưng Đạo",
    "SupportDisability": "",
    "Status": "Đang khai thác",
    "Lng": 106.680041,
    "Lat": 10.754912,
    "Search": "TBT 813 THD",
    "Routes": "01"
  },
  {
    "StopId": 20,
    "Code": "Q5 098",
    "Name": "Nguyễn Biểu",
    "StopType": "Trụ dừng",
    "Zone": "Quận 5",
    "Ward": null,
    "AddressNo": "651",
    "Street": "Trần Hưng Đạo",
    "SupportDisability": "",
    "Status": "Đang khai thác",
    "Lng": 106.68437,
    "Lat": 10.756066,
    "Search": "NB 651 THD",
    "Routes": "01"
  },
  {
    "StopId": 21,
    "Code": "Q1 133",
    "Name": "Sở PCCC",
    "StopType": "Nhà chờ",
    "Zone": "Quận 1",
    "Ward": null,
    "AddressNo": "359",
    "Street": "Trần Hưng Đạo",
    "SupportDisability": "",
    "Status": "Đang khai thác",
    "Lng": 106.689096,
    "Lat": 10.760656,
    "Search": "SP 359 THD",
    "Routes": "01, 139, 152"
  },
  {
    "StopId": 22,
    "Code": "Q1 132",
    "Name": "Tổng Cty Samco",
    "StopType": "Nhà chờ",
    "Zone": "Quận 1",
    "Ward": null,
    "AddressNo": "393 bis",
    "Street": "Trần Hưng Đạo",
    "SupportDisability": "",
    "Status": "Đang khai thác",
    "Lng": 106.688254,
    "Lat": 10.759734,
    "Search": "TCS 393b THD",
    "Routes": "01, 139, 152"
  },
  {
    "StopId": 23,
    "Code": "Q1 134",
    "Name": "Hồ Hảo Hớn",
    "StopType": "Trụ dừng",
    "Zone": "Quận 1",
    "Ward": null,
    "AddressNo": "301F",
    "Street": "Trần Hưng Đạo",
    "SupportDisability": "",
    "Status": "Đang khai thác",
    "Lng": 106.690636,
    "Lat": 10.762395,
    "Search": "HHH 301F THD",
    "Routes": "01, 139, 152"
  },
  {
    "StopId": 24,
    "Code": "Q1 135",
    "Name": "Bệnh Viện Răng Hàm Mặt",
    "StopType": "Nhà chờ",
    "Zone": "Quận 1",
    "Ward": "Phường Cô Giang",
    "AddressNo": "263",
    "Street": "Trần Hưng Đạo",
    "SupportDisability": "",
    "Status": "Đang khai thác",
    "Lng": 106.691612,
    "Lat": 10.763567,
    "Search": "BVRHM 263 THD",
    "Routes": "01, 139, 152"
  },
  {
    "StopId": 25,
    "Code": "Q1 136",
    "Name": "Rạp Trần Hưng Đạo",
    "StopType": "Nhà chờ",
    "Zone": "Quận 1",
    "Ward": "Phường Cô Giang",
    "AddressNo": "227 - 229 (255)",
    "Street": "Trần Hưng Đạo",
    "SupportDisability": "",
    "Status": "Đang khai thác",
    "Lng": 106.692722,
    "Lat": 10.76483,
    "Search": "RTHD 227-229( THD",
    "Routes": "01, 139, 152"
  },
  {
    "StopId": 26,
    "Code": "Q1 137",
    "Name": "KTX Trần Hưng Đạo",
    "StopType": "Nhà chờ",
    "Zone": "Quận 1",
    "Ward": "Phường Cầu Ông Lãnh",
    "AddressNo": "135",
    "Street": "Trần Hưng Đạo",
    "SupportDisability": "",
    "Status": "Đang khai thác",
    "Lng": 106.694824,
    "Lat": 10.767064,
    "Search": "KTHD 135 THD",
    "Routes": "01, 139, 152, 45, 53, 56, 75, 86, 88"
  },
  {
    "StopId": 27,
    "Code": "Q1 138",
    "Name": "Nguyễn Kim",
    "StopType": "Nhà chờ",
    "Zone": "Quận 1",
    "Ward": null,
    "AddressNo": "71C",
    "Street": "Trần Hưng Đạo",
    "SupportDisability": "",
    "Status": "Đang khai thác",
    "Lng": 106.695847,
    "Lat": 10.768327,
    "Search": "NK 71C THD",
    "Routes": "01, 102, 152, 31, 38, 45, 53, 56, 75, 86, 88"
  },
  {
    "StopId": 28,
    "Code": "Q1 016",
    "Name": "Trạm Trung chuyển trên đường Hàm Nghi",
    "StopType": "Nhà chờ",
    "Zone": "Quận 1",
    "Ward": "Phường Nguyễn Thái Bình",
    "AddressNo": "Hàm Nghi 9 (129-133)",
    "Street": "Hàm Nghi",
    "SupportDisability": "",
    "Status": "Đang khai thác",
    "Lng": 106.700233,
    "Lat": 10.770822,
    "Search": "TTctdHN HN9( HN",
    "Routes": "72-2B, 75, D4, DL01"
  },
  {
    "StopId": 30,
    "Code": "Q1 015",
    "Name": "Trạm Trung chuyển trên đường Hàm Nghi",
    "StopType": "Nhà chờ",
    "Zone": "Quận 1",
    "Ward": "Phường Nguyễn Thái Bình",
    "AddressNo": "Hàm nghi 1",
    "Street": "Hàm Nghi",
    "SupportDisability": "",
    "Status": "Đang khai thác",
    "Lng": 106.700356,
    "Lat": 10.771001,
    "Search": "TTctdHN Hn1 HN",
    "Routes": "109, 152, 52, 93"
  },
  {
    "StopId": 31,
    "Code": "Q1 024",
    "Name": "Bến Bạch Đằng",
    "StopType": "Nhà chờ",
    "Zone": "Quận 1",
    "Ward": null,
    "AddressNo": "Bến thủy nội địa Thủ Thiêm",
    "Street": "Tôn Đức Thắng",
    "SupportDisability": "",
    "Status": "Đang khai thác",
    "Lng": 106.706654,
    "Lat": 10.774094,
    "Search": "BBD BtndTT TDT",
    "Routes": "01, 03, 19, 45, 53, 56, 88, DL01, DL02"
  },
  {
    "StopId": 32,
    "Code": "Q1 017",
    "Name": "Hồ Tùng Mậu",
    "StopType": "Nhà chờ",
    "Zone": "Quận 1",
    "Ward": "Phường Nguyễn Thái Bình",
    "AddressNo": "67",
    "Street": "Hàm Nghi",
    "SupportDisability": "",
    "Status": "Đang khai thác",
    "Lng": 106.704074,
    "Lat": 10.770722,
    "Search": "HTM 67 HN",
    "Routes": "01, 03, 19, 20, 45, 53, 56, 75, 88, DL01"
  },
  {
    "StopId": 33,
    "Code": "BX 06",
    "Name": "Công Trường Mê Linh",
    "StopType": "Bến xe",
    "Zone": "Quận 1",
    "Ward": "Phường Bến Nghé",
    "AddressNo": "Công trường Mê Linh",
    "Street": "Thi Sách",
    "SupportDisability": "",
    "Status": "Đang khai thác",
    "Lng": 106.705856,
    "Lat": 10.77679,
    "Search": "CTML CtML TS",
    "Routes": "01"
  },
  {
    "StopId": 34,
    "Code": "Q1 057",
    "Name": "Công Trường Mê Linh",
    "StopType": "Nhà chờ",
    "Zone": "Quận 1",
    "Ward": null,
    "AddressNo": "2",
    "Street": "Hai Bà Trưng",
    "SupportDisability": "",
    "Status": "Đang khai thác",
    "Lng": 106.705822,
    "Lat": 10.775997,
    "Search": "CTML 2 HBT",
    "Routes": "01, 03, 19, 45"
  },
  {
    "StopId": 35,
    "Code": "BX 01",
    "Name": "Bến xe buýt Sài Gòn",
    "StopType": "Bến xe",
    "Zone": "Quận 1",
    "Ward": "Phường Phạm Ngũ Lão",
    "AddressNo": "BẾN XE BUÝT SÀI GÒN",
    "Street": "Lê Lai",
    "SupportDisability": "Có",
    "Status": "Đang khai thác",
    "Lng": 106.689362,
    "Lat": 10.767676,
    "Search": "BxbSG BXBSG LL",
    "Routes": "03, 04, 102, 109, 13, 140, 18, 19, 20, 27, 28, 34, 36, 39, 52, 65, 69, 72, 75, 86, 88, 93, D4, DL03, DL04, DRCB, BD, DRCB, VT"
  },
  {
    "StopId": 39,
    "Code": "Q1 060",
    "Name": "Bưu Điện Thành Phố",
    "StopType": "Trụ dừng",
    "Zone": "Quận 1",
    "Ward": null,
    "AddressNo": "86",
    "Street": "Hai Bà Trưng",
    "SupportDisability": "",
    "Status": "Đang khai thác",
    "Lng": 106.700673,
    "Lat": 10.780645,
    "Search": "BDTP 86 HBT",
    "Routes": "03, 19, 45"
  },
  {
    "StopId": 41,
    "Code": "Q1 061",
    "Name": "Sở Công Thương",
    "StopType": "Nhà chờ",
    "Zone": "Quận 1",
    "Ward": null,
    "AddressNo": "142",
    "Street": "Hai Bà Trưng",
    "SupportDisability": "",
    "Status": "Đang khai thác",
    "Lng": 106.696526,
    "Lat": 10.784297,
    "Search": "SCT 142 HBT",
    "Routes": "03, 31"
  },
  {
    "StopId": 42,
    "Code": "Q1 058",
    "Name": "Nhà Hát Thành Phố",
    "StopType": "Ô sơn",
    "Zone": "Quận 1",
    "Ward": null,
    "AddressNo": "74/A2-74/A4",
    "Street": "Hai Bà Trưng",
    "SupportDisability": "",
    "Status": "Đang khai thác",
    "Lng": 106.703559,
    "Lat": 10.778031,
    "Search": "NHTP 74/A2-74/A4 HBT",
    "Routes": "03, 19, 45"
  },
  {
    "StopId": 43,
    "Code": "Q1 062",
    "Name": "Công viên Lê Văn Tám",
    "StopType": "Nhà chờ",
    "Zone": "Quận 1",
    "Ward": null,
    "AddressNo": "Đối diện 245",
    "Street": "Hai Bà Trưng",
    "SupportDisability": "",
    "Status": "Đang khai thác",
    "Lng": 106.692599,
    "Lat": 10.787427,
    "Search": "CvLVT Dd245 HBT",
    "Routes": "03, 31, 36"
  },
  {
    "StopId": 44,
    "Code": "Q1 059",
    "Name": "Bệnh viện Nhi Đồng 2",
    "StopType": "Nhà chờ",
    "Zone": "Quận 1",
    "Ward": null,
    "AddressNo": "Đối diện 115Ter",
    "Street": "Hai Bà Trưng",
    "SupportDisability": "",
    "Status": "Đang khai thác",
    "Lng": 106.701536,
    "Lat": 10.779881,
    "Search": "BvND2 Dd115Ter HBT",
    "Routes": "03, 19, 45"
  },
  {
    "StopId": 45,
    "Code": "QPN 012",
    "Name": "Cầu Kiệu",
    "StopType": "Ô sơn",
    "Zone": "Quận Phú Nhuận",
    "Ward": null,
    "AddressNo": "28 - 30",
    "Street": "Phan Đình Phùng",
    "SupportDisability": "",
    "Status": "Đang khai thác",
    "Lng": 106.68481,
    "Lat": 10.79365,
    "Search": "CK 28-30 PDP",
    "Routes": "03"
  },
  {
    "StopId": 46,
    "Code": "Q1 063",
    "Name": "Nhà thờ Tân Định",
    "StopType": "Trụ dừng",
    "Zone": "Quận 1",
    "Ward": null,
    "AddressNo": "298",
    "Street": "Hai Bà Trưng",
    "SupportDisability": "",
    "Status": "Đang khai thác",
    "Lng": 106.690399,
    "Lat": 10.789215,
    "Search": "NtTD 298 HBT",
    "Routes": "03, 31, 36"
  },
  {
    "StopId": 47,
    "Code": "Q1 064",
    "Name": "Chợ Tân Định",
    "StopType": "Trụ dừng",
    "Zone": "Quận 1",
    "Ward": null,
    "AddressNo": "372-374",
    "Street": "Hai Bà Trưng",
    "SupportDisability": "",
    "Status": "Đang khai thác",
    "Lng": 106.688843,
    "Lat": 10.790456,
    "Search": "CTD 372-374 HBT",
    "Routes": "03, 31, 36"
  },
  {
    "StopId": 48,
    "Code": "QPN 014",
    "Name": "Trường Cao đẳng Kinh tế Đối ngoại",
    "StopType": "Ô sơn",
    "Zone": "Quận Phú Nhuận",
    "Ward": null,
    "AddressNo": "312 - 314",
    "Street": "Phan Đình Phùng",
    "SupportDisability": "",
    "Status": "Đang khai thác",
    "Lng": 106.680905,
    "Lat": 10.79795,
    "Search": "TCdKtDn 312-314 PDP",
    "Routes": "03"
  },
  {
    "StopId": 49,
    "Code": "QPN 013",
    "Name": "Chợ Phú Nhuận",
    "StopType": "Ô sơn",
    "Zone": "Quận Phú Nhuận",
    "Ward": null,
    "AddressNo": "158 - 160",
    "Street": "Phan Đình Phùng",
    "SupportDisability": "",
    "Status": "Đang khai thác",
    "Lng": 106.683018,
    "Lat": 10.795062,
    "Search": "CPN 158-160 PDP",
    "Routes": "03"
  },
  {
    "StopId": 50,
    "Code": "QPN 001",
    "Name": "Ngã tư Phú Nhuận",
    "StopType": "Trụ dừng",
    "Zone": "Quận Phú Nhuận",
    "Ward": null,
    "AddressNo": "392",
    "Street": "Nguyễn Kiệm",
    "SupportDisability": "",
    "Status": "Đang khai thác",
    "Lng": 106.680138,
    "Lat": 10.799713,
    "Search": "NtPN 392 NK",
    "Routes": "03, 55"
  },
  {
    "StopId": 51,
    "Code": "QPN 002",
    "Name": "Nhà Truyền Thông",
    "StopType": "Trụ dừng",
    "Zone": "Quận Phú Nhuận",
    "Ward": null,
    "AddressNo": "466",
    "Street": "Nguyễn Kiệm",
    "SupportDisability": "",
    "Status": "Đang khai thác",
    "Lng": 106.679245,
    "Lat": 10.802232,
    "Search": "NTT 466 NK",
    "Routes": "03, 55"
  },
  {
    "StopId": 52,
    "Code": "QPN 003 ",
    "Name": "Ngã ba Hồ Văn Huê",
    "StopType": "Trụ dừng",
    "Zone": "Quận Phú Nhuận",
    "Ward": null,
    "AddressNo": "582",
    "Street": "Nguyễn Kiệm",
    "SupportDisability": "",
    "Status": "Đang khai thác",
    "Lng": 106.678759,
    "Lat": 10.805259,
    "Search": "NbHVH 582 NK",
    "Routes": "03, 55"
  },
  {
    "StopId": 53,
    "Code": "QPN 004",
    "Name": "Coop Mart Nguyễn Kiệm",
    "StopType": "Trụ dừng",
    "Zone": "Quận Phú Nhuận",
    "Ward": null,
    "AddressNo": "668-670",
    "Street": "Nguyễn Kiệm",
    "SupportDisability": "",
    "Status": "Đang khai thác",
    "Lng": 106.678528,
    "Lat": 10.807077,
    "Search": "CMNK 668-670 NK",
    "Routes": "03, 55"
  },
  {
    "StopId": 54,
    "Code": "QPN 005",
    "Name": "Chùa Vạn Hạnh",
    "StopType": "Nhà chờ",
    "Zone": "Quận Phú Nhuận",
    "Ward": null,
    "AddressNo": "750",
    "Street": "Nguyễn Kiệm",
    "SupportDisability": "",
    "Status": "Đang khai thác",
    "Lng": 106.67856,
    "Lat": 10.810349,
    "Search": "CVH 750 NK",
    "Routes": "03, 55"
  },
  {
    "StopId": 55,
    "Code": "QGV 125",
    "Name": "Trường Cao đẳng Hải Quan",
    "StopType": "Nhà chờ",
    "Zone": "Quận Gò Vấp",
    "Ward": null,
    "AddressNo": "780A",
    "Street": "Nguyễn Kiệm",
    "SupportDisability": "",
    "Status": "Đang khai thác",
    "Lng": 106.678711,
    "Lat": 10.812475,
    "Search": "TCdHQ 780A NK",
    "Routes": "03, 55"
  },
  {
    "StopId": 56,
    "Code": "QGV 040",
    "Name": "Cầu vượt Nguyễn Thái Sơn - Nguyễn Kiệm",
    "StopType": "Trụ dừng",
    "Zone": "Quận Gò Vấp",
    "Ward": null,
    "AddressNo": "86 - 86C",
    "Street": "Nguyễn Thái Sơn",
    "SupportDisability": "",
    "Status": "Đang khai thác",
    "Lng": 106.680443,
    "Lat": 10.816282,
    "Search": "CvNTS-NK 86-86C NTS",
    "Routes": "03, 07, 103, 148, 55, 59"
  },
  {
    "StopId": 57,
    "Code": "QGV 042",
    "Name": "Ngã ba Phạm Ngũ Lão",
    "StopType": "Trụ dừng",
    "Zone": "Quận Gò Vấp",
    "Ward": null,
    "AddressNo": "182",
    "Street": "Nguyễn Thái Sơn",
    "SupportDisability": "",
    "Status": "Đang khai thác",
    "Lng": 106.683147,
    "Lat": 10.819712,
    "Search": "NbPNL 182 NTS",
    "Routes": "03, 07, 103, 148, 55, 59"
  },
  {
    "StopId": 58,
    "Code": "QGV 104",
    "Name": "Cầu vượt ngã sáu Gò Vấp",
    "StopType": "Trụ dừng",
    "Zone": "Quận Gò Vấp",
    "Ward": null,
    "AddressNo": "110-112",
    "Street": "Nguyễn Oanh",
    "SupportDisability": "",
    "Status": "Đang khai thác",
    "Lng": 106.678775,
    "Lat": 10.828991,
    "Search": "CvnsGV 110-112 NO",
    "Routes": "03, 59"
  },
  {
    "StopId": 60,
    "Code": "QGV 187 ",
    "Name": "Cầu vượt ngã sáu Gò Vấp",
    "StopType": "Trụ dừng",
    "Zone": "Quận Gò Vấp",
    "Ward": null,
    "AddressNo": "140-142",
    "Street": "Phạm Ngũ Lão ",
    "SupportDisability": "",
    "Status": "Đang khai thác",
    "Lng": 106.681221,
    "Lat": 10.824607,
    "Search": "CvnsGV 140-142 PNL",
    "Routes": "03, 07, 103, 148, 55, 59"
  },
  {
    "StopId": 62,
    "Code": "QGV 106",
    "Name": "Ngã tư Phan Văn Trị",
    "StopType": "Nhà chờ",
    "Zone": "Quận Gò Vấp",
    "Ward": null,
    "AddressNo": "152",
    "Street": "Nguyễn Oanh",
    "SupportDisability": "",
    "Status": "Đang khai thác",
    "Lng": 106.676699,
    "Lat": 10.832547,
    "Search": "NtPVT 152 NO",
    "Routes": "03, 59"
  },
  {
    "StopId": 63,
    "Code": "QGV 108",
    "Name": "Đài Liệt sĩ",
    "StopType": "Nhà chờ",
    "Zone": "Quận Gò Vấp",
    "Ward": null,
    "AddressNo": "Đối diện 197 (93)",
    "Street": "Nguyễn Oanh",
    "SupportDisability": "",
    "Status": "Đang khai thác",
    "Lng": 106.67583,
    "Lat": 10.839297,
    "Search": "DLs Dd197( NO",
    "Routes": "03, 59"
  },
  {
    "StopId": 64,
    "Code": "QGV 110",
    "Name": "Bến Đò",
    "StopType": "Trụ dừng",
    "Zone": "Quận Gò Vấp",
    "Ward": null,
    "AddressNo": "538",
    "Street": "Nguyễn Oanh",
    "SupportDisability": "",
    "Status": "Đang khai thác",
    "Lng": 106.678496,
    "Lat": 10.84691,
    "Search": "BD 538 NO",
    "Routes": "03, 161, 32, 59"
  },
  {
    "StopId": 67,
    "Code": "QGV 107",
    "Name": "Cư xá Lam Sơn",
    "StopType": "Nhà chờ",
    "Zone": "Quận Gò Vấp",
    "Ward": null,
    "AddressNo": "214",
    "Street": "Nguyễn Oanh",
    "SupportDisability": "",
    "Status": "Đang khai thác",
    "Lng": 106.67561,
    "Lat": 10.836114,
    "Search": "CxLS 214 NO",
    "Routes": "03, 59"
  },
  {
    "StopId": 68,
    "Code": "Q12 034",
    "Name": "Đình thần Giao Khẩu",
    "StopType": "Trụ dừng",
    "Zone": "Quận 12",
    "Ward": null,
    "AddressNo": "332",
    "Street": "Hà Huy Giáp",
    "SupportDisability": "",
    "Status": "Đang khai thác",
    "Lng": 106.680433,
    "Lat": 10.865217,
    "Search": "DtGK 332 HHG",
    "Routes": "03, 58"
  },
  {
    "StopId": 69,
    "Code": "Q12 036",
    "Name": "Vườn kiểng Quang Dũng",
    "StopType": "Trụ dừng",
    "Zone": "Quận 12",
    "Ward": null,
    "AddressNo": "452",
    "Street": "Hà Huy Giáp",
    "SupportDisability": "",
    "Status": "Đang khai thác",
    "Lng": 106.676978,
    "Lat": 10.871371,
    "Search": "VkQD 452 HHG",
    "Routes": "03, 58"
  },
  {
    "StopId": 70,
    "Code": "Q12 037",
    "Name": "Ga ra Thanh Hậu",
    "StopType": "Trụ dừng",
    "Zone": "Quận 12",
    "Ward": null,
    "AddressNo": "508",
    "Street": "Hà Huy Giáp",
    "SupportDisability": "",
    "Status": "Đang khai thác",
    "Lng": 106.677032,
    "Lat": 10.875454,
    "Search": "GrTH 508 HHG",
    "Routes": "03, 58"
  },
  {
    "StopId": 71,
    "Code": "Q12 038",
    "Name": "Chợ Thạnh Xuân",
    "StopType": "Nhà chờ",
    "Zone": "Quận 12",
    "Ward": null,
    "AddressNo": "Nhà văn hóa P. Thạnh Lộc",
    "Street": "Hà Huy Giáp",
    "SupportDisability": "",
    "Status": "Đang khai thác",
    "Lng": 106.678201,
    "Lat": 10.878493,
    "Search": "CTX NvhPTL HHG",
    "Routes": "03, 58"
  },
  {
    "StopId": 72,
    "Code": "QGV 109",
    "Name": "Ngã tư An Nhơn",
    "StopType": "Trụ dừng",
    "Zone": "Quận Gò Vấp",
    "Ward": null,
    "AddressNo": "388",
    "Street": "Nguyễn Oanh",
    "SupportDisability": "",
    "Status": "Đang khai thác",
    "Lng": 106.676833,
    "Lat": 10.842268,
    "Search": "NtAN 388 NO",
    "Routes": "03, 161, 32, 59"
  },
  {
    "StopId": 73,
    "Code": "Q12 032",
    "Name": "Nhà hàng Bến Xưa",
    "StopType": "Trụ dừng",
    "Zone": "Quận 12",
    "Ward": null,
    "AddressNo": "42",
    "Street": "Hà Huy Giáp",
    "SupportDisability": "",
    "Status": "Đang khai thác",
    "Lng": 106.679285,
    "Lat": 10.852642,
    "Search": "NhBX 42 HHG",
    "Routes": "03, 161, 32, 59"
  },
  {
    "StopId": 74,
    "Code": "Q12 035",
    "Name": "Cây xăng Tài Lộc",
    "StopType": "Trụ dừng",
    "Zone": "Quận 12",
    "Ward": null,
    "AddressNo": "408B",
    "Street": "Hà Huy Giáp",
    "SupportDisability": "",
    "Status": "Đang khai thác",
    "Lng": 106.678319,
    "Lat": 10.86831,
    "Search": "CxTL 408B HHG",
    "Routes": "03, 58"
  },
  {
    "StopId": 75,
    "Code": "BX38",
    "Name": "Thạnh Xuân",
    "StopType": "Bến xe",
    "Zone": "Quận 12",
    "Ward": null,
    "AddressNo": "Thửa đất số 413 tờ bản đồ số 04, phường Thạnh Xuân, Quận 12",
    "Street": "Thạnh Xuân 52",
    "SupportDisability": "",
    "Status": "Đang khai thác",
    "Lng": 106.673427,
    "Lat": 10.89288,
    "Search": "TX Tds413tbds04,pTXQ12 TX52",
    "Routes": "03"
  },
  {
    "StopId": 76,
    "Code": "Q1 020",
    "Name": "Cục Hải Quan Thành Phố",
    "StopType": "Nhà chờ",
    "Zone": "Quận 1",
    "Ward": "Phường Bến Nghé",
    "AddressNo": "2-4",
    "Street": "Hàm Nghi",
    "SupportDisability": "",
    "Status": "Đang khai thác",
    "Lng": 106.705549,
    "Lat": 10.770885,
    "Search": "CHQTP 2-4 HN",
    "Routes": "01, 03, 19, 45, 53, 56, 88"
  },
  {
    "StopId": 77,
    "Code": "Q12 039",
    "Name": "Trường Điện lực 2",
    "StopType": "Trụ dừng",
    "Zone": "Quận 12",
    "Ward": null,
    "AddressNo": "554 ",
    "Street": "Hà Huy Giáp",
    "SupportDisability": "",
    "Status": "Đang khai thác",
    "Lng": 106.679188,
    "Lat": 10.880785,
    "Search": "TDl2 554 HHG",
    "Routes": "03, 58"
  },
  {
    "StopId": 78,
    "Code": "Q1 021",
    "Name": "Trạm Trung chuyển trên đường Hàm Nghi",
    "StopType": "Nhà chờ",
    "Zone": "Quận 1",
    "Ward": "Phường Bến Thành",
    "AddressNo": "Hàm nghi 2",
    "Street": "Hàm Nghi",
    "SupportDisability": "",
    "Status": "Đang khai thác",
    "Lng": 106.699954,
    "Lat": 10.771017,
    "Search": "TTctdHN Hn2 HN",
    "Routes": "34, 38, 39, 45, 75"
  },
  {
    "StopId": 79,
    "Code": "Q1 031",
    "Name": "Bến Bạch Đằng",
    "StopType": "Trụ dừng",
    "Zone": "Quận 1",
    "Ward": null,
    "AddressNo": "21",
    "Street": "Tôn Đức Thắng",
    "SupportDisability": "",
    "Status": "Đang khai thác",
    "Lng": 106.706359,
    "Lat": 10.773299,
    "Search": "BBD 21 TDT",
    "Routes": "01, 03, 19, 45, 53, 56, 88, DL01"
  },
  {
    "StopId": 80,
    "Code": "Q1 022",
    "Name": "Trạm Trung chuyển trên đường Hàm Nghi",
    "StopType": "Nhà chờ",
    "Zone": "Quận 1",
    "Ward": "Phường Bến Thành",
    "AddressNo": "Hàm Nghi 10 (134)",
    "Street": "Hàm Nghi",
    "SupportDisability": "",
    "Status": "Đang khai thác",
    "Lng": 106.700082,
    "Lat": 10.771222,
    "Search": "TTctdHN HN10( HN",
    "Routes": "52, 93"
  },
  {
    "StopId": 82,
    "Code": "Q1 023",
    "Name": "Trạm Trung chuyển trên đường Hàm Nghi",
    "StopType": "Nhà chờ",
    "Zone": "Quận 1",
    "Ward": "Phường Bến Thành",
    "AddressNo": "Hàm Nghi 16 (140)",
    "Street": "Hàm Nghi",
    "SupportDisability": "",
    "Status": "Đang khai thác",
    "Lng": 106.699326,
    "Lat": 10.771243,
    "Search": "TTctdHN HN16( HN",
    "Routes": "04, 18, 20"
  },
  {
    "StopId": 83,
    "Code": "Q1 044",
    "Name": "Trường Ernst Thalmann",
    "StopType": "Nhà chờ",
    "Zone": "Quận 1",
    "Ward": null,
    "AddressNo": "Đối diện 103",
    "Street": "Phạm Ngũ Lão",
    "SupportDisability": "",
    "Status": "Đã hủy",
    "Lng": 106.695839,
    "Lat": 10.769773,
    "Search": "TET Dd103 PNL",
    "Routes": ""
  },
  {
    "StopId": 84,
    "Code": "Q1 123",
    "Name": "Ngã sáu Phù Đổng",
    "StopType": "Nhà chờ",
    "Zone": "Quận 1",
    "Ward": "Phường Bến Thành",
    "AddressNo": "Đối diện số 26",
    "Street": "Nguyễn Thị Nghĩa",
    "SupportDisability": "",
    "Status": "Đang khai thác",
    "Lng": 106.693833,
    "Lat": 10.770901,
    "Search": "NsPD Dds26 NTN",
    "Routes": "28, 46, 69"
  },
  {
    "StopId": 85,
    "Code": "Q1 145",
    "Name": "Nguyễn Trãi",
    "StopType": "Trụ dừng",
    "Zone": "Quận 1",
    "Ward": "Phường Bến Thành",
    "AddressNo": "22",
    "Street": "Nguyễn Trãi",
    "SupportDisability": "",
    "Status": "Đang khai thác",
    "Lng": 106.69268,
    "Lat": 10.77097,
    "Search": "NT 22 NT",
    "Routes": "28, 46, 65"
  },
  {
    "StopId": 86,
    "Code": "Q1 147",
    "Name": "Nhà thờ Huyện Sỹ",
    "StopType": "Trụ dừng",
    "Zone": "Quận 1",
    "Ward": null,
    "AddressNo": "206Bis",
    "Street": "Nguyễn Trãi",
    "SupportDisability": "",
    "Status": "Đang khai thác",
    "Lng": 106.688591,
    "Lat": 10.767692,
    "Search": "NtHS 206Bis NT",
    "Routes": "27, 46, 53, 72-2B"
  },
  {
    "StopId": 87,
    "Code": "Q1 146",
    "Name": "Tôn Thất Tùng",
    "StopType": "Trụ dừng",
    "Zone": "Quận 1",
    "Ward": "Phường Bến Thành",
    "AddressNo": "136",
    "Street": "Nguyễn Trãi",
    "SupportDisability": "",
    "Status": "Đang khai thác",
    "Lng": 106.690788,
    "Lat": 10.769646,
    "Search": "TTT 136 NT",
    "Routes": "28, 46, 65"
  },
  {
    "StopId": 88,
    "Code": "Q1 006",
    "Name": "Chợ Thái Bình",
    "StopType": "Trụ dừng",
    "Zone": "Quận 1",
    "Ward": null,
    "AddressNo": "244",
    "Street": "Cống Quỳnh",
    "SupportDisability": "",
    "Status": "Đang khai thác",
    "Lng": 106.687793,
    "Lat": 10.766943,
    "Search": "CTB 244 CQ",
    "Routes": "27, 53"
  },
  {
    "StopId": 89,
    "Code": "Q3 072",
    "Name": "Trung ương Hội Chữ thập đỏ TP",
    "StopType": "Nhà chờ",
    "Zone": "Quận 3",
    "Ward": null,
    "AddressNo": "464 - 466",
    "Street": "Nguyễn Thị Minh Khai",
    "SupportDisability": "",
    "Status": "Đang khai thác",
    "Lng": 106.683657,
    "Lat": 10.767723,
    "Search": "TuHCtdT 464-466 NTMK",
    "Routes": "05, 06, 14, 27, 38, 53"
  },
  {
    "StopId": 90,
    "Code": "Q3 073",
    "Name": "Nhà sách Minh Khai",
    "StopType": "Trụ dừng",
    "Zone": "Quận 3",
    "Ward": null,
    "AddressNo": "488",
    "Street": "Nguyễn Thị Minh Khai",
    "SupportDisability": "",
    "Status": "Đang khai thác",
    "Lng": 106.68238,
    "Lat": 10.766395,
    "Search": "NsMK 488 NTMK",
    "Routes": "05, 06, 14, 27, 38, 53"
  },
  {
    "StopId": 91,
    "Code": "Q3 074",
    "Name": "Chợ Bàn Cờ",
    "StopType": "Trụ dừng",
    "Zone": "Quận 3",
    "Ward": "Phường 02",
    "AddressNo": "82-84",
    "Street": "Nguyễn Thiện Thuật",
    "SupportDisability": "",
    "Status": "Tạm ngưng khai thác",
    "Lng": 106.68084,
    "Lat": 10.767317,
    "Search": "CBC 82-84 NTT",
    "Routes": ""
  },
  {
    "StopId": 92,
    "Code": "Q3 021",
    "Name": "Cao Thắng",
    "StopType": "Ô sơn",
    "Zone": "Quận 3",
    "Ward": "Phường 01",
    "AddressNo": "503-507",
    "Street": "Điện Biên Phủ",
    "SupportDisability": "",
    "Status": "Đang khai thác",
    "Lng": 106.67738,
    "Lat": 10.771164,
    "Search": "CT 503-507 DBP",
    "Routes": "10, 150, 91"
  },
  {
    "StopId": 93,
    "Code": "Q10 089",
    "Name": "Cao Thắng",
    "StopType": "Trụ dừng",
    "Zone": "Quận 10",
    "Ward": null,
    "AddressNo": "156",
    "Street": "Cao Thắng",
    "SupportDisability": "",
    "Status": "Đang khai thác",
    "Lng": 106.67836,
    "Lat": 10.773362,
    "Search": "CT 156 CT",
    "Routes": "156D"
  },
  {
    "StopId": 94,
    "Code": "Q10 004",
    "Name": "Học viện Hành chính Quốc gia",
    "StopType": "Nhà chờ",
    "Zone": "Quận 10",
    "Ward": null,
    "AddressNo": "Kế 10A",
    "Street": "Đường 3/2",
    "SupportDisability": "",
    "Status": "Đang khai thác",
    "Lng": 106.675701,
    "Lat": 10.772661,
    "Search": "HvHcQg K10A D3/2",
    "Routes": "07, 10, 91"
  },
  {
    "StopId": 95,
    "Code": "Q10 003",
    "Name": "Học viện Hành chính Quốc gia",
    "StopType": "Nhà chờ",
    "Zone": "Quận 10",
    "Ward": null,
    "AddressNo": "10",
    "Street": "Đường 3/2",
    "SupportDisability": "",
    "Status": "Đang khai thác",
    "Lng": 106.676951,
    "Lat": 10.773457,
    "Search": "HvHcQg 10 D3/2",
    "Routes": "07, 10, 91"
  },
  {
    "StopId": 96,
    "Code": "Q10 006",
    "Name": "Nhà thờ Vinh Sơn",
    "StopType": "Trụ dừng",
    "Zone": "Quận 10",
    "Ward": null,
    "AddressNo": "270",
    "Street": "Đường 3/2",
    "SupportDisability": "",
    "Status": "Đang khai thác",
    "Lng": 106.67215,
    "Lat": 10.770521,
    "Search": "NtVS 270 D3/2",
    "Routes": "07, 10"
  },
  {
    "StopId": 97,
    "Code": "Q10 005",
    "Name": "Nhà hát Hòa Bình",
    "StopType": "Nhà chờ",
    "Zone": "Quận 10",
    "Ward": null,
    "AddressNo": "240",
    "Street": "Đường 3/2",
    "SupportDisability": "",
    "Status": "Đang khai thác",
    "Lng": 106.674202,
    "Lat": 10.771712,
    "Search": "NhHB 240 D3/2",
    "Routes": "07, 10, 91"
  },
  {
    "StopId": 98,
    "Code": "Q10 008",
    "Name": "Ngã ba Nguyễn Kim",
    "StopType": "Trụ dừng",
    "Zone": "Quận 10",
    "Ward": null,
    "AddressNo": "626-628",
    "Street": "Đường 3/2",
    "SupportDisability": "",
    "Status": "Đang khai thác",
    "Lng": 106.661743,
    "Lat": 10.764972,
    "Search": "NbNK 626-628 D3/2",
    "Routes": "14, 27"
  },
  {
    "StopId": 99,
    "Code": "Q10 007",
    "Name": "Bệnh viện Nhi Đồng 1",
    "StopType": "Trụ dừng",
    "Zone": "Quận 10",
    "Ward": null,
    "AddressNo": "356",
    "Street": "Đường 3/2",
    "SupportDisability": "",
    "Status": "Đang khai thác",
    "Lng": 106.670364,
    "Lat": 10.769578,
    "Search": "BvND1 356 D3/2",
    "Routes": "07, 10"
  },
  {
    "StopId": 100,
    "Code": "Q11 001",
    "Name": "Nhà sách Phương Nam",
    "StopType": "Nhà chờ",
    "Zone": "Quận 11",
    "Ward": null,
    "AddressNo": "940 (6B)",
    "Street": "Đường 3/2",
    "SupportDisability": "",
    "Status": "Đang khai thác",
    "Lng": 106.658409,
    "Lat": 10.763115,
    "Search": "NsPN 940( D3/2",
    "Routes": "103, 14, 27"
  },
  {
    "StopId": 101,
    "Code": "Q11 002",
    "Name": "Lê Đại Hành",
    "StopType": "Trụ dừng",
    "Zone": "Quận 11",
    "Ward": null,
    "AddressNo": "972-974(970)",
    "Street": "Đường 3/2",
    "SupportDisability": "",
    "Status": "Đang khai thác",
    "Lng": 106.65603,
    "Lat": 10.761842,
    "Search": "LDH 972-974(970) D3/2",
    "Routes": "103, 14"
  },
  {
    "StopId": 103,
    "Code": "Q11 003",
    "Name": "Tạ Uyên",
    "StopType": "Trụ dừng",
    "Zone": "Quận 11",
    "Ward": null,
    "AddressNo": "1114A-1116A",
    "Street": "Đường 3/2",
    "SupportDisability": "",
    "Status": "Đang khai thác",
    "Lng": 106.653557,
    "Lat": 10.760535,
    "Search": "TU 1114A-1116A D3/2",
    "Routes": "103, 14"
  },
  {
    "StopId": 104,
    "Code": "Q11 005",
    "Name": "Hàn Hải Nguyên",
    "StopType": "Trụ dừng",
    "Zone": "Quận 11",
    "Ward": null,
    "AddressNo": "1274",
    "Street": "Đường 3/2",
    "SupportDisability": "",
    "Status": "Đang khai thác",
    "Lng": 106.647838,
    "Lat": 10.757357,
    "Search": "HHN 1274 D3/2",
    "Routes": "14"
  },
  {
    "StopId": 105,
    "Code": "Q11 004",
    "Name": "Xóm Đất",
    "StopType": "Nhà chờ",
    "Zone": "Quận 11",
    "Ward": null,
    "AddressNo": "1196",
    "Street": "Đường 3/2",
    "SupportDisability": "",
    "Status": "Đang khai thác",
    "Lng": 106.650156,
    "Lat": 10.758648,
    "Search": "XD 1196 D3/2",
    "Routes": "14"
  },
  {
    "StopId": 106,
    "Code": "Q11 007",
    "Name": "Vòng xoay Cây Gõ",
    "StopType": "Trụ dừng",
    "Zone": "Quận 11",
    "Ward": null,
    "AddressNo": "1456",
    "Street": "Đường 3/2",
    "SupportDisability": "",
    "Status": "Đang khai thác",
    "Lng": 106.643858,
    "Lat": 10.755207,
    "Search": "VxCG 1456 D3/2",
    "Routes": "14"
  },
  {
    "StopId": 107,
    "Code": "Q11 006",
    "Name": "Thái Phiên",
    "StopType": "Trụ dừng",
    "Zone": "Quận 11",
    "Ward": null,
    "AddressNo": "1354",
    "Street": "Đường 3/2",
    "SupportDisability": "",
    "Status": "Đang khai thác",
    "Lng": 106.646034,
    "Lat": 10.756348,
    "Search": "TP 1354 D3/2",
    "Routes": "14"
  },
  {
    "StopId": 108,
    "Code": "Q6 062",
    "Name": "Chợ Minh Phụng",
    "StopType": "Trụ dừng",
    "Zone": "Quận 6",
    "Ward": null,
    "AddressNo": "101A-101",
    "Street": "Minh Phụng",
    "SupportDisability": "",
    "Status": "Đang khai thác",
    "Lng": 106.642495,
    "Lat": 10.750922,
    "Search": "CMP 101A-101 MP",
    "Routes": "148"
  },
  {
    "StopId": 109,
    "Code": "Q6 061",
    "Name": "Vòng xoay Cây Gõ",
    "StopType": "Trụ dừng",
    "Zone": "Quận 6",
    "Ward": null,
    "AddressNo": "201",
    "Street": "Minh Phụng",
    "SupportDisability": "",
    "Status": "Đang khai thác",
    "Lng": 106.642929,
    "Lat": 10.753264,
    "Search": "VxCG 201 MP",
    "Routes": "148"
  },
  {
    "StopId": 110,
    "Code": "Q6 026",
    "Name": "Chợ Hoa",
    "StopType": "Trụ dừng",
    "Zone": "Quận 6",
    "Ward": null,
    "AddressNo": "460-462",
    "Street": "Hậu Giang",
    "SupportDisability": "",
    "Status": "Đang khai thác",
    "Lng": 106.637437,
    "Lat": 10.748714,
    "Search": "CH 460-462 HG",
    "Routes": "10, 148, 25, 61, 91"
  },
  {
    "StopId": 111,
    "Code": "Q6 025",
    "Name": "Cầu Hậu Giang",
    "StopType": "Trụ dừng",
    "Zone": "Quận 6",
    "Ward": null,
    "AddressNo": "212A",
    "Street": "Hậu Giang",
    "SupportDisability": "",
    "Status": "Đang khai thác",
    "Lng": 106.641503,
    "Lat": 10.749736,
    "Search": "CHG 212A HG",
    "Routes": "10, 148, 25, 61, 91"
  },
  {
    "StopId": 112,
    "Code": "Q6 028",
    "Name": "Bình Phú",
    "StopType": "Biển treo",
    "Zone": "Quận 6",
    "Ward": null,
    "AddressNo": "730-732",
    "Street": "Hậu Giang",
    "SupportDisability": "",
    "Status": "Đang khai thác",
    "Lng": 106.633312,
    "Lat": 10.747697,
    "Search": "BP 730-732 HG",
    "Routes": "10, 148, 25, 91"
  },
  {
    "StopId": 113,
    "Code": "Q6 027",
    "Name": "Nguyễn Văn Luông",
    "StopType": "Trụ dừng",
    "Zone": "Quận 6",
    "Ward": null,
    "AddressNo": "620-622",
    "Street": "Hậu Giang",
    "SupportDisability": "",
    "Status": "Đang khai thác",
    "Lng": 106.634663,
    "Lat": 10.748039,
    "Search": "NVL 620-622 HG",
    "Routes": "10, 148, 25, 91"
  },
  {
    "StopId": 114,
    "Code": "Q6 029",
    "Name": "Đồng Quê",
    "StopType": "Biển treo",
    "Zone": "Quận 6",
    "Ward": null,
    "AddressNo": "910",
    "Street": "Hậu Giang",
    "SupportDisability": "",
    "Status": "Đang khai thác",
    "Lng": 106.628382,
    "Lat": 10.746511,
    "Search": "DQ 910 HG",
    "Routes": "10, 148, 25, 91"
  },
  {
    "StopId": 115,
    "Code": "Q6 030",
    "Name": "Mũi Tàu Phú Lâm",
    "StopType": "Trụ dừng",
    "Zone": "Quận 6",
    "Ward": null,
    "AddressNo": "1054",
    "Street": "Hậu Giang",
    "SupportDisability": "",
    "Status": "Đang khai thác",
    "Lng": 106.624686,
    "Lat": 10.745536,
    "Search": "MTPL 1054 HG",
    "Routes": "10, 148, 25, 91"
  },
  {
    "StopId": 116,
    "Code": "QBT 012",
    "Name": "Bến xe Miền Tây",
    "StopType": "Trụ dừng",
    "Zone": "Quận Bình Tân",
    "Ward": "Phường An Lạc",
    "AddressNo": "358-360",
    "Street": "Kinh Dương Vương",
    "SupportDisability": "",
    "Status": "Đang khai thác",
    "Lng": 106.619096,
    "Lat": 10.741973,
    "Search": "BxMT 358-360 KDV",
    "Routes": "09, 10, 139, 14, 148, 25, 32, 61, 62-10, 62-2, 62-8, 63-1, 84, 91"
  },
  {
    "StopId": 117,
    "Code": "QBT 011",
    "Name": "Vòng xoay Kinh Dương Vương",
    "StopType": "Trụ dừng",
    "Zone": "Quận Bình Tân",
    "Ward": "Phường An Lạc",
    "AddressNo": "212-214",
    "Street": "Kinh Dương Vương",
    "SupportDisability": "",
    "Status": "Đang khai thác",
    "Lng": 106.622475,
    "Lat": 10.744746,
    "Search": "VxKDV 212-214 KDV",
    "Routes": "09, 10, 139, 14, 148, 25, 32, 61, 62-1, 62-10, 62-2, 62-8, 63-1, 84, 91"
  },
  {
    "StopId": 119,
    "Code": "QBT 008",
    "Name": "Bến xe Miền Tây",
    "StopType": "Nhà chờ",
    "Zone": "Quận Bình Tân",
    "Ward": "Phường An Lạc",
    "AddressNo": "Bến xe Miền Tây",
    "Street": "Kinh Dương Vương",
    "SupportDisability": "",
    "Status": "Đang khai thác",
    "Lng": 106.618468,
    "Lat": 10.741035,
    "Search": "BxMT BxMT KDV",
    "Routes": "09, 25, 61, 62-1, 62-10, 62-2, 62-8, 63-1, 84"
  },
  {
    "StopId": 120,
    "Code": "Q1 124",
    "Name": "Trường Ernst Thalmann",
    "StopType": "Nhà chờ",
    "Zone": "Quận 1",
    "Ward": null,
    "AddressNo": "8",
    "Street": "Trần Hưng Đạo",
    "SupportDisability": "",
    "Status": "Đang khai thác",
    "Lng": 106.695923,
    "Lat": 10.768772,
    "Search": "TET 8 THD",
    "Routes": "01, 139, 28, 45, 69, 75"
  },
  {
    "StopId": 121,
    "Code": "Q1 125",
    "Name": "KTX Trần Hưng Đạo",
    "StopType": "Nhà chờ",
    "Zone": "Quận 1",
    "Ward": null,
    "AddressNo": "10",
    "Street": "Trần Hưng Đạo",
    "SupportDisability": "",
    "Status": "Đang khai thác",
    "Lng": 106.694695,
    "Lat": 10.767363,
    "Search": "KTHD 10 THD",
    "Routes": "01, 139, 152, 45, 56"
  },
  {
    "StopId": 122,
    "Code": "Q1 126",
    "Name": "Rạp Hưng Đạo",
    "StopType": "Nhà chờ",
    "Zone": "Quận 1",
    "Ward": null,
    "AddressNo": "112",
    "Street": "Trần Hưng Đạo",
    "SupportDisability": "",
    "Status": "Đang khai thác",
    "Lng": 106.693375,
    "Lat": 10.765832,
    "Search": "RHD 112 THD",
    "Routes": "01, 139, 152, 45, 56"
  },
  {
    "StopId": 123,
    "Code": "Q1 127",
    "Name": "Bệnh viện Răng Hàm Mặt",
    "StopType": "Nhà chờ",
    "Zone": "Quận 1",
    "Ward": null,
    "AddressNo": "150",
    "Street": "Trần Hưng Đạo",
    "SupportDisability": "",
    "Status": "Đang khai thác",
    "Lng": 106.691696,
    "Lat": 10.763918,
    "Search": "BvRHM 150 THD",
    "Routes": "01, 139, 152"
  },
  {
    "StopId": 124,
    "Code": "Q1 128",
    "Name": "Trần Đình Xu",
    "StopType": "Trụ dừng",
    "Zone": "Quận 1",
    "Ward": null,
    "AddressNo": "210 - 212",
    "Street": "Trần Hưng Đạo",
    "SupportDisability": "",
    "Status": "Đang khai thác",
    "Lng": 106.690247,
    "Lat": 10.762262,
    "Search": "TDX 210-212 THD",
    "Routes": "01, 139, 152"
  },
  {
    "StopId": 125,
    "Code": "Q1 129",
    "Name": "Tổng Cty Samco",
    "StopType": "Nhà chờ",
    "Zone": "Quận 1",
    "Ward": null,
    "AddressNo": "262",
    "Street": "Trần Hưng Đạo",
    "SupportDisability": "",
    "Status": "Đang khai thác",
    "Lng": 106.687798,
    "Lat": 10.759409,
    "Search": "TCS 262 THD",
    "Routes": "01, 139, 152"
  },
  {
    "StopId": 126,
    "Code": "Q1 130",
    "Name": "Chợ Nanci",
    "StopType": "Trụ dừng",
    "Zone": "Quận 1",
    "Ward": null,
    "AddressNo": "290-292-292A",
    "Street": "Trần Hưng Đạo",
    "SupportDisability": "",
    "Status": "Đang khai thác",
    "Lng": 106.686035,
    "Lat": 10.757467,
    "Search": "CN 290-292-292A THD",
    "Routes": "01, 139, 152"
  },
  {
    "StopId": 127,
    "Code": "Q5 083",
    "Name": "Nguyễn Biểu",
    "StopType": "Trụ dừng",
    "Zone": "Quận 5",
    "Ward": null,
    "AddressNo": "454",
    "Street": "Trần Hưng Đạo",
    "SupportDisability": "",
    "Status": "Đang khai thác",
    "Lng": 106.68283,
    "Lat": 10.755887,
    "Search": "NB 454 THD",
    "Routes": "01"
  },
  {
    "StopId": 128,
    "Code": "Q5 084",
    "Name": "Trường Cao đẳng Kinh tế Đối ngoại",
    "StopType": "Nhà chờ",
    "Zone": "Quận 5",
    "Ward": null,
    "AddressNo": "520",
    "Street": "Trần Hưng Đạo",
    "SupportDisability": "",
    "Status": "Đang khai thác",
    "Lng": 106.681833,
    "Lat": 10.755623,
    "Search": "TCdKtDn 520 THD",
    "Routes": "01"
  },
  {
    "StopId": 129,
    "Code": "Q5 085",
    "Name": "Trần Bình Trọng",
    "StopType": "Trụ dừng",
    "Zone": "Quận 5",
    "Ward": null,
    "AddressNo": "560(564)",
    "Street": "Trần Hưng Đạo",
    "SupportDisability": "",
    "Status": "Đang khai thác",
    "Lng": 106.679794,
    "Lat": 10.755064,
    "Search": "TBT 560(564) THD",
    "Routes": "01"
  },
  {
    "StopId": 130,
    "Code": "Q5 086",
    "Name": "Bệnh viện Chấn thương Chỉnh hình",
    "StopType": "Nhà chờ",
    "Zone": "Quận 5",
    "Ward": null,
    "AddressNo": "696",
    "Street": "Trần Hưng Đạo",
    "SupportDisability": "",
    "Status": "Đang khai thác",
    "Lng": 106.677847,
    "Lat": 10.754537,
    "Search": "BvCtCh 696 THD",
    "Routes": "01"
  },
  {
    "StopId": 131,
    "Code": "Q5 087",
    "Name": "Rạp Đồng Tháp",
    "StopType": "Trụ dừng",
    "Zone": "Quận 5",
    "Ward": null,
    "AddressNo": "780",
    "Street": "Trần Hưng Đạo",
    "SupportDisability": "",
    "Status": "Đang khai thác",
    "Lng": 106.675825,
    "Lat": 10.753984,
    "Search": "RDT 780 THD",
    "Routes": "01"
  },
  {
    "StopId": 132,
    "Code": "Q5 089",
    "Name": "Đồng Khánh",
    "StopType": "Trụ dừng",
    "Zone": "Quận 5",
    "Ward": null,
    "AddressNo": "18",
    "Street": "Trần Hưng Đạo",
    "SupportDisability": "",
    "Status": "Đang khai thác",
    "Lng": 106.67149,
    "Lat": 10.752983,
    "Search": "DK 18 THD",
    "Routes": "01"
  },
  {
    "StopId": 133,
    "Code": "Q5 091",
    "Name": "Tản Đà",
    "StopType": "Trụ dừng",
    "Zone": "Quận 5",
    "Ward": null,
    "AddressNo": "274",
    "Street": "Trần Hưng Đạo",
    "SupportDisability": "",
    "Status": "Đang khai thác",
    "Lng": 106.663706,
    "Lat": 10.752292,
    "Search": "TD 274 THD",
    "Routes": "01"
  },
  {
    "StopId": 134,
    "Code": "Q5 088",
    "Name": "Rạp Đống Đa",
    "StopType": "Trụ dừng",
    "Zone": "Quận 5",
    "Ward": null,
    "AddressNo": "882",
    "Street": "Trần Hưng Đạo",
    "SupportDisability": "",
    "Status": "Đang khai thác",
    "Lng": 106.674237,
    "Lat": 10.753573,
    "Search": "RDD 882 THD",
    "Routes": "01"
  },
  {
    "StopId": 135,
    "Code": "Q5 092",
    "Name": "Triệu Quang Phục",
    "StopType": "Trụ dừng",
    "Zone": "Quận 5",
    "Ward": "Phường 11",
    "AddressNo": "390",
    "Street": "Trần Hưng Đạo",
    "SupportDisability": "",
    "Status": "Đang khai thác",
    "Lng": 106.660536,
    "Lat": 10.75206,
    "Search": "TQP 390 THD",
    "Routes": "01"
  },
  {
    "StopId": 136,
    "Code": "Q5 090",
    "Name": "Ngô Quyền",
    "StopType": "Biển treo",
    "Zone": "Quận 5",
    "Ward": null,
    "AddressNo": "212",
    "Street": "Trần Hưng Đạo",
    "SupportDisability": "",
    "Status": "Đang khai thác",
    "Lng": 106.666174,
    "Lat": 10.752477,
    "Search": "NQ 212 THD",
    "Routes": "01"
  },
  {
    "StopId": 137,
    "Code": "Q5 014",
    "Name": "Bưu điện Quận 5",
    "StopType": "Ô sơn",
    "Zone": "Quận 5",
    "Ward": null,
    "AddressNo": "13-15",
    "Street": "Châu Văn Liêm",
    "SupportDisability": "",
    "Status": "Đang khai thác",
    "Lng": 106.658894,
    "Lat": 10.751381,
    "Search": "BdQ5 13-15 CVL",
    "Routes": "01, 07, 08, 10, 45, 56, 62"
  },
  {
    "StopId": 138,
    "Code": "Q5 015",
    "Name": "Hải Thượng Lãn Ông",
    "StopType": "Trụ dừng",
    "Zone": "Quận 5",
    "Ward": null,
    "AddressNo": "210-212",
    "Street": "Hải Thượng Lãn Ông",
    "SupportDisability": "",
    "Status": "Đang khai thác",
    "Lng": 106.658358,
    "Lat": 10.750948,
    "Search": "HTLO 210-212 HTLO",
    "Routes": "01, 07, 10, 25, 39, 47, 56"
  },
  {
    "StopId": 139,
    "Code": "Q5 102",
    "Name": "Chợ Kim Biên",
    "StopType": "Trụ dừng",
    "Zone": "Quận 5",
    "Ward": null,
    "AddressNo": "5",
    "Street": "Trang Tử",
    "SupportDisability": "",
    "Status": "Đang khai thác",
    "Lng": 106.655086,
    "Lat": 10.751128,
    "Search": "CKB 5 TT",
    "Routes": "01, 07, 10, 25, 39, 47, 56"
  },
  {
    "StopId": 140,
    "Code": "QBT 010",
    "Name": "Kinh Dương Vương",
    "StopType": "Trụ dừng",
    "Zone": "Quận Bình Tân",
    "Ward": "Phường An Lạc",
    "AddressNo": "7",
    "Street": "Kinh Dương Vương",
    "SupportDisability": "",
    "Status": "Đang khai thác",
    "Lng": 106.623162,
    "Lat": 10.744919,
    "Search": "KDV 7 KDV",
    "Routes": "09, 10, 139, 14, 148, 25, 32, 61, 62-1, 62-10, 62-2, 62-8, 63-1, 84, 91"
  },
  {
    "StopId": 141,
    "Code": "Q6 031",
    "Name": "Mũi Tàu Phú Lâm",
    "StopType": "Biển treo",
    "Zone": "Quận 6",
    "Ward": null,
    "AddressNo": "1031C",
    "Street": "Hậu Giang",
    "SupportDisability": "",
    "Status": "Đang khai thác",
    "Lng": 106.624466,
    "Lat": 10.745362,
    "Search": "MTPL 1031C HG",
    "Routes": "10, 148, 25, 91"
  },
  {
    "StopId": 142,
    "Code": "Q6 034",
    "Name": "Nguyễn Văn Luông",
    "StopType": "Trụ dừng",
    "Zone": "Quận 6",
    "Ward": null,
    "AddressNo": "517-519",
    "Street": "Hậu Giang",
    "SupportDisability": "",
    "Status": "Đang khai thác",
    "Lng": 106.636192,
    "Lat": 10.74826,
    "Search": "NVL 517-519 HG",
    "Routes": "10, 148, 25, 61, 91"
  },
  {
    "StopId": 143,
    "Code": "Q6 032",
    "Name": "Đồng Quê",
    "StopType": "Biển treo",
    "Zone": "Quận 6",
    "Ward": null,
    "AddressNo": "904",
    "Street": "Hậu Giang",
    "SupportDisability": "",
    "Status": "Đang khai thác",
    "Lng": 106.628092,
    "Lat": 10.746311,
    "Search": "DQ 904 HG",
    "Routes": "10, 148, 25, 91"
  },
  {
    "StopId": 144,
    "Code": "Q6 035",
    "Name": "Chợ Hoa",
    "StopType": "Trụ dừng",
    "Zone": "Quận 6",
    "Ward": null,
    "AddressNo": "411",
    "Street": "Hậu Giang",
    "SupportDisability": "",
    "Status": "Đang khai thác",
    "Lng": 106.638204,
    "Lat": 10.748756,
    "Search": "CH 411 HG",
    "Routes": "10, 148, 25, 61, 91"
  },
  {
    "StopId": 145,
    "Code": "Q6 033",
    "Name": "Bình Phú",
    "StopType": "Biển treo",
    "Zone": "Quận 6",
    "Ward": null,
    "AddressNo": "733-735",
    "Street": "Hậu Giang",
    "SupportDisability": "",
    "Status": "Đang khai thác",
    "Lng": 106.633526,
    "Lat": 10.747623,
    "Search": "BP 733-735 HG",
    "Routes": "10, 148, 25, 91"
  },
  {
    "StopId": 146,
    "Code": "Q6 059",
    "Name": "Chợ Minh Phụng",
    "StopType": "Trụ dừng",
    "Zone": "Quận 6",
    "Ward": null,
    "AddressNo": "122",
    "Street": "Minh Phụng",
    "SupportDisability": "",
    "Status": "Đang khai thác",
    "Lng": 106.642619,
    "Lat": 10.750869,
    "Search": "CMP 122 MP",
    "Routes": "148"
  },
  {
    "StopId": 147,
    "Code": "Q6 060",
    "Name": "Vòng xoay Cây Gõ",
    "StopType": "Trụ dừng",
    "Zone": "Quận 6",
    "Ward": null,
    "AddressNo": "242",
    "Street": "Minh Phụng",
    "SupportDisability": "",
    "Status": "Đang khai thác",
    "Lng": 106.643096,
    "Lat": 10.753468,
    "Search": "VxCG 242 MP",
    "Routes": "148"
  },
  {
    "StopId": 148,
    "Code": "Q11 008",
    "Name": "Vòng xoay Cây Gõ",
    "StopType": "Trụ dừng",
    "Zone": "Quận 11",
    "Ward": null,
    "AddressNo": "1559",
    "Street": "Đường 3/2",
    "SupportDisability": "",
    "Status": "Đang khai thác",
    "Lng": 106.644314,
    "Lat": 10.755201,
    "Search": "VxCG 1559 D3/2",
    "Routes": "14"
  },
  {
    "StopId": 149,
    "Code": "Q11 010",
    "Name": "Lò Siêu",
    "StopType": "Trụ dừng",
    "Zone": "Quận 11",
    "Ward": null,
    "AddressNo": "1375",
    "Street": "Đường 3/2",
    "SupportDisability": "",
    "Status": "Đang khai thác",
    "Lng": 106.648171,
    "Lat": 10.757257,
    "Search": "LS 1375 D3/2",
    "Routes": "14"
  },
  {
    "StopId": 150,
    "Code": "Q11 009",
    "Name": "Thái Phiên",
    "StopType": "Trụ dừng",
    "Zone": "Quận 11",
    "Ward": null,
    "AddressNo": "1479",
    "Street": "Đường 3/2",
    "SupportDisability": "",
    "Status": "Đang khai thác",
    "Lng": 106.645993,
    "Lat": 10.756082,
    "Search": "TP 1479 D3/2",
    "Routes": "14"
  },
  {
    "StopId": 151,
    "Code": "Q11 011",
    "Name": "Xóm đất",
    "StopType": "Trụ dừng",
    "Zone": "Quận 11",
    "Ward": null,
    "AddressNo": "1293",
    "Street": "Đường 3/2",
    "SupportDisability": "",
    "Status": "Đang khai thác",
    "Lng": 106.650301,
    "Lat": 10.758469,
    "Search": "Xd 1293 D3/2",
    "Routes": "14"
  },
  {
    "StopId": 152,
    "Code": "Q11 012",
    "Name": "Hà Tôn Quyền",
    "StopType": "Trụ dừng",
    "Zone": "Quận 11",
    "Ward": null,
    "AddressNo": "1241",
    "Street": "Đường 3/2",
    "SupportDisability": "",
    "Status": "Đang khai thác",
    "Lng": 106.652108,
    "Lat": 10.759454,
    "Search": "HTQ 1241 D3/2",
    "Routes": "14"
  },
  {
    "StopId": 153,
    "Code": "Q11 013",
    "Name": "Tạ Uyên",
    "StopType": "Trụ dừng",
    "Zone": "Quận 11",
    "Ward": null,
    "AddressNo": "1163",
    "Street": "Đường 3/2",
    "SupportDisability": "",
    "Status": "Đang khai thác",
    "Lng": 106.653763,
    "Lat": 10.760371,
    "Search": "TU 1163 D3/2",
    "Routes": "103, 14, 62"
  },
  {
    "StopId": 154,
    "Code": "Q11 014",
    "Name": "Lê Đại Hành",
    "StopType": "Trụ dừng",
    "Zone": "Quận 11",
    "Ward": null,
    "AddressNo": "1007 (1029)",
    "Street": "Đường 3/2",
    "SupportDisability": "",
    "Status": "Đang khai thác",
    "Lng": 106.656006,
    "Lat": 10.761562,
    "Search": "LDH 1007( D3/2",
    "Routes": "103, 14, 62"
  },
  {
    "StopId": 155,
    "Code": "Q11 015",
    "Name": "Phú Thọ",
    "StopType": "Nhà chờ",
    "Zone": "Quận 11",
    "Ward": null,
    "AddressNo": "957",
    "Street": "Đường 3/2",
    "SupportDisability": "",
    "Status": "Đang khai thác",
    "Lng": 106.657881,
    "Lat": 10.762574,
    "Search": "PT 957 D3/2",
    "Routes": "103, 14, 27"
  },
  {
    "StopId": 156,
    "Code": "Q10 009",
    "Name": "Ngã ba Nguyễn Kim",
    "StopType": "Trụ dừng",
    "Zone": "Quận 10",
    "Ward": null,
    "AddressNo": "781",
    "Street": "Đường 3/2",
    "SupportDisability": "",
    "Status": "Đang khai thác",
    "Lng": 106.661078,
    "Lat": 10.76434,
    "Search": "NbNK 781 D3/2",
    "Routes": "14, 27"
  },
  {
    "StopId": 157,
    "Code": "Q10 010",
    "Name": "Nhà thờ tin lành Nguyễn Tri Phương",
    "StopType": "Trụ dừng",
    "Zone": "Quận 10",
    "Ward": null,
    "AddressNo": "635",
    "Street": "Đường 3/2",
    "SupportDisability": "",
    "Status": "Đang khai thác",
    "Lng": 106.664627,
    "Lat": 10.766232,
    "Search": "NttlNTP 635 D3/2",
    "Routes": "14, 27"
  },
  {
    "StopId": 158,
    "Code": "Q10 011",
    "Name": "Bệnh viện Nhi Đồng 1",
    "StopType": "Nhà chờ",
    "Zone": "Quận 10",
    "Ward": null,
    "AddressNo": "Đối diện 350",
    "Street": "Đường 3/2",
    "SupportDisability": "",
    "Status": "Đang khai thác",
    "Lng": 106.670609,
    "Lat": 10.769518,
    "Search": "BvND1 Dd350 D3/2",
    "Routes": "07"
  },
  {
    "StopId": 159,
    "Code": "Q10 013",
    "Name": "Nhà hát Hòa Bình",
    "StopType": "Trụ dừng",
    "Zone": "Quận 10",
    "Ward": null,
    "AddressNo": "183A-183B",
    "Street": "Đường 3/2",
    "SupportDisability": "",
    "Status": "Đang khai thác",
    "Lng": 106.674805,
    "Lat": 10.771855,
    "Search": "NhHB 183A-183B D3/2",
    "Routes": "07"
  },
  {
    "StopId": 160,
    "Code": "Q10 012",
    "Name": "Nhà thờ Vinh Sơn",
    "StopType": "Trụ dừng",
    "Zone": "Quận 10",
    "Ward": null,
    "AddressNo": "273-275",
    "Street": "Đường 3/2",
    "SupportDisability": "",
    "Status": "Đang khai thác",
    "Lng": 106.672166,
    "Lat": 10.770269,
    "Search": "NtVS 273-275 D3/2",
    "Routes": "07"
  },
  {
    "StopId": 161,
    "Code": "Q3 018",
    "Name": "Điện Biên Phủ",
    "StopType": "Nhà chờ",
    "Zone": "Quận 3",
    "Ward": null,
    "AddressNo": "75",
    "Street": "Cao Thắng",
    "SupportDisability": "",
    "Status": "Đang khai thác",
    "Lng": 106.679947,
    "Lat": 10.77182,
    "Search": "DBP 75 CT",
    "Routes": "156V"
  },
  {
    "StopId": 162,
    "Code": "Q10 014",
    "Name": "Học viện Hành chính Quốc gia",
    "StopType": "Trụ dừng",
    "Zone": "Quận 10",
    "Ward": null,
    "AddressNo": "113",
    "Street": "Đường 3/2",
    "SupportDisability": "",
    "Status": "Đang khai thác",
    "Lng": 106.677015,
    "Lat": 10.77323,
    "Search": "HvHcQg 113 D3/2",
    "Routes": "07"
  },
  {
    "StopId": 163,
    "Code": "Q3 019",
    "Name": "Nguyễn Đình Chiểu",
    "StopType": "Trụ dừng",
    "Zone": "Quận 3",
    "Ward": null,
    "AddressNo": "31",
    "Street": "Cao Thắng",
    "SupportDisability": "",
    "Status": "Đang khai thác",
    "Lng": 106.682526,
    "Lat": 10.769566,
    "Search": "NDC 31 CT",
    "Routes": "156V"
  },
  {
    "StopId": 164,
    "Code": "Q1 007",
    "Name": "Chợ Thái Bình",
    "StopType": "Trụ dừng",
    "Zone": "Quận 1",
    "Ward": null,
    "AddressNo": "187A",
    "Street": "Cống Quỳnh",
    "SupportDisability": "",
    "Status": "Đang khai thác",
    "Lng": 106.687653,
    "Lat": 10.766863,
    "Search": "CTB 187A CQ",
    "Routes": "156V, 27, 53"
  },
  {
    "StopId": 165,
    "Code": "BX 07",
    "Name": "Công Trường Mê Linh",
    "StopType": "Bến xe",
    "Zone": "Quận 1",
    "Ward": null,
    "AddressNo": "CÔNG TRƯỜNG MÊ LINH",
    "Street": "Đông Du",
    "SupportDisability": "",
    "Status": "Đã hủy",
    "Lng": 106.705429,
    "Lat": 10.776809,
    "Search": "CTML CTML DD",
    "Routes": ""
  },
  {
    "StopId": 166,
    "Code": "BX41",
    "Name": "Bến xe An Sương",
    "StopType": "Bến xe",
    "Zone": "Quận 12",
    "Ward": null,
    "AddressNo": "Bến xe An Sương",
    "Street": "Quốc lộ 22",
    "SupportDisability": "",
    "Status": "Đang khai thác",
    "Lng": 106.61337280273438,
    "Lat": 10.843737602233887,
    "Search": "BxAS BxAS Ql22",
    "Routes": "04, 104, 122, 151, 27, 33, 41, 61-3, 62-5, 65, 71, 74, 85"
  },
  {
    "StopId": 167,
    "Code": "Q12 135",
    "Name": "Bitis",
    "StopType": "Nhà chờ",
    "Zone": "Quận 12",
    "Ward": null,
    "AddressNo": "487",
    "Street": "Trường Chinh",
    "SupportDisability": "",
    "Status": "Đang khai thác",
    "Lng": 106.617347,
    "Lat": 10.838891,
    "Search": "B 487 TC",
    "Routes": "04, 104, 13, 145, 27, 41, 65, 94"
  },
  {
    "StopId": 168,
    "Code": "Q12 137",
    "Name": "Chùa Vĩnh Phước",
    "StopType": "Nhà chờ",
    "Zone": "Quận 12",
    "Ward": null,
    "AddressNo": "Chùa Vĩnh Phước",
    "Street": "Trường Chinh",
    "SupportDisability": "",
    "Status": "Đang khai thác",
    "Lng": 106.621794,
    "Lat": 10.83202,
    "Search": "CVP CVP TC",
    "Routes": "04, 104, 13, 145, 27, 41, 65, 94"
  },
  {
    "StopId": 169,
    "Code": "Q12 139",
    "Name": "Cầu Tham Lương - Siêu thị Thiên Hòa",
    "StopType": "Nhà chờ",
    "Zone": "Quận 12",
    "Ward": null,
    "AddressNo": "21 (Kế 2/6B)",
    "Street": "Trường Chinh",
    "SupportDisability": "",
    "Status": "Đang khai thác",
    "Lng": 106.62586,
    "Lat": 10.82624,
    "Search": "CTL-StTH 21(2/6B) TC",
    "Routes": "04, 104, 13, 145, 23, 27, 41, 62, 65, 94"
  },
  {
    "StopId": 170,
    "Code": "Q12 138",
    "Name": "Siêu thị Chợ Lớn",
    "StopType": "Nhà chờ",
    "Zone": "Quận 12",
    "Ward": null,
    "AddressNo": "113",
    "Street": "Trường Chinh",
    "SupportDisability": "",
    "Status": "Đã hủy",
    "Lng": 106.623747,
    "Lat": 10.829017,
    "Search": "StCL 113 TC",
    "Routes": ""
  },
  {
    "StopId": 172,
    "Code": "Q12 136",
    "Name": "Chùa Lạc Quang",
    "StopType": "Nhà chờ",
    "Zone": "Quận 12",
    "Ward": null,
    "AddressNo": "257",
    "Street": "Trường Chinh",
    "SupportDisability": "",
    "Status": "Đang khai thác",
    "Lng": 106.620212,
    "Lat": 10.834497,
    "Search": "CLQ 257 TC",
    "Routes": "04, 104, 13, 145, 27, 41, 65, 94"
  },
  {
    "StopId": 173,
    "Code": "QTP 011",
    "Name": "Trạm KCN Tân Bình",
    "StopType": "Nhà chờ",
    "Zone": "Quận Tân Phú",
    "Ward": "Phường Tây Thạnh",
    "AddressNo": "881",
    "Street": "Trường Chinh",
    "SupportDisability": "Có",
    "Status": "Đang khai thác",
    "Lng": 106.630615,
    "Lat": 10.819386,
    "Search": "TKTB 881 TC",
    "Routes": "04, 104, 13, 145, 23, 27, 28, 62, 65, 94"
  },
  {
    "StopId": 174,
    "Code": "QTP 010",
    "Name": "Trạm Dệt Thành Công",
    "StopType": "Nhà chờ",
    "Zone": "Quận Tân Phú",
    "Ward": "Phường Tây Thạnh",
    "AddressNo": "8",
    "Street": "Trường Chinh",
    "SupportDisability": "Có",
    "Status": "Đang khai thác",
    "Lng": 106.629825,
    "Lat": 10.822315,
    "Search": "TDTC 8 TC",
    "Routes": "04, 104, 13, 145, 23, 27, 32, 41, 62, 65, 94"
  },
  {
    "StopId": 175,
    "Code": "QTP 013",
    "Name": "Chế Lan Viên",
    "StopType": "Nhà chờ",
    "Zone": "Quận Tân Phú",
    "Ward": "Phường Tây Thạnh",
    "AddressNo": "28/7B",
    "Street": "Trường Chinh",
    "SupportDisability": "",
    "Status": "Đã hủy",
    "Lng": 106.632748,
    "Lat": 10.812878,
    "Search": "CLV 28/7B TC",
    "Routes": ""
  },
  {
    "StopId": 176,
    "Code": "QTP 012",
    "Name": "Ngã 3 Chế Lan Viên",
    "StopType": "Nhà chờ",
    "Zone": "Quận Tân Phú",
    "Ward": "Phường Tây Thạnh",
    "AddressNo": "831 (trước showroom o tô)",
    "Street": "Trường Chinh",
    "SupportDisability": "Có",
    "Status": "Đang khai thác",
    "Lng": 106.632377,
    "Lat": 10.814455,
    "Search": "N3CLV 831(sot TC",
    "Routes": "04, 104, 13, 145, 23, 27, 28, 62, 65, 94"
  },
  {
    "StopId": 177,
    "Code": "QTP 014",
    "Name": "Trạm Đài Liệt Sỹ",
    "StopType": "Nhà chờ",
    "Zone": "Quận Tân Phú",
    "Ward": "Phường Tây Thạnh",
    "AddressNo": "1/3",
    "Street": "Trường Chinh",
    "SupportDisability": "",
    "Status": "Đang khai thác",
    "Lng": 106.634019,
    "Lat": 10.808689,
    "Search": "TDLS 1/3 TC",
    "Routes": "04, 104, 13, 145, 16, 23, 27, 28, 48, 62, 63-1, 65, 94"
  },
  {
    "StopId": 178,
    "Code": "QTB 118",
    "Name": "Thượng Uyển",
    "StopType": "Nhà chờ",
    "Zone": "Quận Tân Bình",
    "Ward": null,
    "AddressNo": "680 (Thượng Uyển)",
    "Street": "Cộng Hòa",
    "SupportDisability": "",
    "Status": "Đang khai thác",
    "Lng": 106.636055,
    "Lat": 10.806144,
    "Search": "TU 680(U CH",
    "Routes": "04, 104, 145, 28, 63-1"
  },
  {
    "StopId": 179,
    "Code": "QTB 121",
    "Name": "Ngã ba Bình Giã",
    "StopType": "Trụ dừng",
    "Zone": "Quận Tân Bình",
    "Ward": null,
    "AddressNo": "303",
    "Street": "Cộng Hòa",
    "SupportDisability": "",
    "Status": "Đang khai thác",
    "Lng": 106.644292,
    "Lat": 10.802055,
    "Search": "NbBG 303 CH",
    "Routes": "04, 104, 145, 28, 63-1"
  },
  {
    "StopId": 180,
    "Code": "QTB 119",
    "Name": "Ngã tư Tân Kỳ Tân Quý",
    "StopType": "Trụ dừng",
    "Zone": "Quận Tân Bình",
    "Ward": null,
    "AddressNo": "401",
    "Street": "Cộng Hòa",
    "SupportDisability": "",
    "Status": "Đang khai thác",
    "Lng": 106.637887,
    "Lat": 10.803541,
    "Search": "NtTKTQ 401 CH",
    "Routes": "04, 104, 145, 28, 63-1"
  },
  {
    "StopId": 181,
    "Code": "QTB 120",
    "Name": "ETown",
    "StopType": "Nhà chờ",
    "Zone": "Quận Tân Bình",
    "Ward": null,
    "AddressNo": "ETown",
    "Street": "Cộng Hòa",
    "SupportDisability": "",
    "Status": "Đang khai thác",
    "Lng": 106.640253,
    "Lat": 10.802371,
    "Search": "E E CH",
    "Routes": "04, 104, 145, 28, 63-1"
  },
  {
    "StopId": 182,
    "Code": "QTB 123",
    "Name": "Pico Plaza",
    "StopType": "Nhà chờ",
    "Zone": "Quận Tân Bình",
    "Ward": null,
    "AddressNo": "20Bis",
    "Street": "Cộng Hòa",
    "SupportDisability": "",
    "Status": "Đang khai thác",
    "Lng": 106.653637,
    "Lat": 10.801254,
    "Search": "PP 20Bis CH",
    "Routes": "04, 104, 109, 145, 28, 63-1"
  },
  {
    "StopId": 183,
    "Code": "QTB 122",
    "Name": "Công ty Lô Hội",
    "StopType": "Nhà chờ",
    "Zone": "Quận Tân Bình",
    "Ward": null,
    "AddressNo": "19A (Công ty Lô Hội)",
    "Street": "Cộng Hòa",
    "SupportDisability": "",
    "Status": "Đang khai thác",
    "Lng": 106.650413,
    "Lat": 10.801544,
    "Search": "CtLH 19A(tLH CH",
    "Routes": "04, 104, 109, 145, 28, 63-1"
  },
  {
    "StopId": 184,
    "Code": "QTB 125",
    "Name": "Siêu thị Maximart Cộng Hòa",
    "StopType": "Nhà chờ",
    "Zone": "Quận Tân Bình",
    "Ward": null,
    "AddressNo": "Đối diện 58 (Siêu thị Maximart)",
    "Street": "Cộng Hòa",
    "SupportDisability": "",
    "Status": "Đang khai thác",
    "Lng": 106.658819,
    "Lat": 10.800833,
    "Search": "StMCH Dd58(tM CH",
    "Routes": "04, 104, 109, 145, 28, 63-1"
  },
  {
    "StopId": 185,
    "Code": "QTB 124",
    "Name": "Ngã ba Út tịch",
    "StopType": "Trụ dừng",
    "Zone": "Quận Tân Bình",
    "Ward": null,
    "AddressNo": "35-37",
    "Street": "Cộng Hòa",
    "SupportDisability": "",
    "Status": "Đang khai thác",
    "Lng": 106.656679,
    "Lat": 10.800985,
    "Search": "NbÚt 35-37 CH",
    "Routes": "04, 104, 109, 145, 28, 63-1"
  },
  {
    "StopId": 186,
    "Code": "QTB 037",
    "Name": "Bảo Tàng Miền Đông",
    "StopType": "Nhà chờ",
    "Zone": "Quận Tân Bình",
    "Ward": null,
    "AddressNo": "247",
    "Street": "Hoàng Văn Thụ",
    "SupportDisability": "",
    "Status": "Đang khai thác",
    "Lng": 106.666372,
    "Lat": 10.800237,
    "Search": "BTMD 247 HVT",
    "Routes": "04, 08, 104, 109, 152, 63-1, 64, 72-2B"
  },
  {
    "StopId": 187,
    "Code": "QTB 036",
    "Name": "Công viên Hoàng Văn Thụ",
    "StopType": "Nhà chờ",
    "Zone": "Quận Tân Bình",
    "Ward": null,
    "AddressNo": "259",
    "Street": "Hoàng Văn Thụ",
    "SupportDisability": "",
    "Status": "Đang khai thác",
    "Lng": 106.663578,
    "Lat": 10.800469,
    "Search": "CvHVT 259 HVT",
    "Routes": "04, 08, 103, 104, 109, 148, 50, 59, 63-1, 64, 72-2B"
  },
  {
    "StopId": 188,
    "Code": "QPN 043",
    "Name": "Cây xăng Quân khu 7",
    "StopType": "Trụ dừng",
    "Zone": "Quận Phú Nhuận",
    "Ward": null,
    "AddressNo": "307",
    "Street": "Nguyễn Văn Trỗi",
    "SupportDisability": "",
    "Status": "Đang khai thác",
    "Lng": 106.66847,
    "Lat": 10.799589,
    "Search": "CxQk7 307 NVT",
    "Routes": "04, 109, 152, 72-2B"
  },
  {
    "StopId": 189,
    "Code": "QPN 046",
    "Name": "Trung tâm Văn hóa Quận Phú Nhuận",
    "StopType": "Trụ dừng",
    "Zone": "Quận Phú Nhuận",
    "Ward": null,
    "AddressNo": "157",
    "Street": "Nguyễn Văn Trỗi",
    "SupportDisability": "",
    "Status": "Đang khai thác",
    "Lng": 106.675894,
    "Lat": 10.795236,
    "Search": "TtVhQPN 157 NVT",
    "Routes": "04, 109, 152, 72-2B"
  },
  {
    "StopId": 190,
    "Code": "QPN 044",
    "Name": "Bệnh viện Quận Phú Nhuận",
    "StopType": "Trụ dừng",
    "Zone": "Quận Phú Nhuận",
    "Ward": null,
    "AddressNo": "279",
    "Street": "Nguyễn Văn Trỗi",
    "SupportDisability": "",
    "Status": "Đang khai thác",
    "Lng": 106.670744,
    "Lat": 10.798282,
    "Search": "BvQPN 279 NVT",
    "Routes": "04, 109, 152, 72-2B"
  },
  {
    "StopId": 191,
    "Code": "QPN 045",
    "Name": "Cổng Xe lửa",
    "StopType": "Trụ dừng",
    "Zone": "Quận Phú Nhuận",
    "Ward": null,
    "AddressNo": "253",
    "Street": "Nguyễn Văn Trỗi",
    "SupportDisability": "",
    "Status": "Đang khai thác",
    "Lng": 106.673609,
    "Lat": 10.796596,
    "Search": "CXl 253 NVT",
    "Routes": "04, 109, 152, 72-2B"
  },
  {
    "StopId": 192,
    "Code": "Q3 052",
    "Name": "Chùa Vĩnh Nghiêm",
    "StopType": "Trụ dừng",
    "Zone": "Quận 3",
    "Ward": "Phường 07",
    "AddressNo": "321-323",
    "Street": "Nam Kỳ Khởi Nghĩa",
    "SupportDisability": "",
    "Status": "Đang khai thác",
    "Lng": 106.683022,
    "Lat": 10.790381,
    "Search": "CVN 321-323 NKKN",
    "Routes": "04, 109, 152, 72-1, 72-2B"
  },
  {
    "StopId": 193,
    "Code": "QPN 047",
    "Name": "Ngã tư Trần Huy Liệu",
    "StopType": "Trụ dừng",
    "Zone": "Quận Phú Nhuận",
    "Ward": null,
    "AddressNo": "101",
    "Street": "Nguyễn Văn Trỗi",
    "SupportDisability": "",
    "Status": "Đang khai thác",
    "Lng": 106.679167,
    "Lat": 10.793276,
    "Search": "NtTHL 101 NVT",
    "Routes": "04, 109, 152, 72-2B"
  },
  {
    "StopId": 194,
    "Code": "Q3 054",
    "Name": "Viện Pasteur",
    "StopType": "Nhà chờ",
    "Zone": "Quận 3",
    "Ward": "Phường 07",
    "AddressNo": "179",
    "Street": "Nam Kỳ Khởi Nghĩa",
    "SupportDisability": "",
    "Status": "Đang khai thác",
    "Lng": 106.688474,
    "Lat": 10.785351,
    "Search": "VP 179 NKKN",
    "Routes": "04, 109, 152, 72-2B"
  },
  {
    "StopId": 195,
    "Code": "Q3 056",
    "Name": "Coop Mart Nguyễn Đình Chiểu",
    "StopType": "Nhà chờ",
    "Zone": "Quận 3",
    "Ward": null,
    "AddressNo": "143",
    "Street": "Nam Kỳ Khởi Nghĩa",
    "SupportDisability": "",
    "Status": "Đang khai thác",
    "Lng": 106.693152,
    "Lat": 10.78113,
    "Search": "CMNDC 143 NKKN",
    "Routes": "04, 109, 152, 31, 72-2B, 93"
  },
  {
    "StopId": 196,
    "Code": "Q3 053",
    "Name": "Trần Quốc Toản",
    "StopType": "Trụ dừng",
    "Zone": "Quận 3",
    "Ward": "Phường 07",
    "AddressNo": "201 F-E",
    "Street": "Nam Kỳ Khởi Nghĩa",
    "SupportDisability": "",
    "Status": "Đang khai thác",
    "Lng": 106.686897,
    "Lat": 10.786831,
    "Search": "TQT 201F NKKN",
    "Routes": "04, 109, 152, 72-2B"
  },
  {
    "StopId": 197,
    "Code": "Q3 057",
    "Name": "Trường THPT Lê Quý Đôn",
    "StopType": "Nhà chờ",
    "Zone": "Quận 3",
    "Ward": null,
    "AddressNo": "Đối diện 166 - 168",
    "Street": "Nam Kỳ Khởi Nghĩa",
    "SupportDisability": "",
    "Status": "Đang khai thác",
    "Lng": 106.69452,
    "Lat": 10.779844,
    "Search": "TTLQD Dd166-168 NKKN",
    "Routes": "04, 109, 152, 31, 72-2B, 93"
  },
  {
    "StopId": 198,
    "Code": "Q3 055",
    "Name": "Điện Biên Phủ",
    "StopType": "Nhà chờ",
    "Zone": "Quận 3",
    "Ward": null,
    "AddressNo": "159",
    "Street": "Nam Kỳ Khởi Nghĩa",
    "SupportDisability": "Có",
    "Status": "Đang khai thác",
    "Lng": 106.69099,
    "Lat": 10.783116,
    "Search": "DBP 159 NKKN",
    "Routes": "04, 109, 152, 72-2B"
  },
  {
    "StopId": 199,
    "Code": "Q1 076",
    "Name": "Chùa Ông",
    "StopType": "Trụ dừng",
    "Zone": "Quận 1",
    "Ward": null,
    "AddressNo": "Đối diện 96A",
    "Street": "Nam Kỳ Khởi Nghĩa",
    "SupportDisability": "",
    "Status": "Đang khai thác",
    "Lng": 106.699722,
    "Lat": 10.773957,
    "Search": "CO Dd96A NKKN",
    "Routes": "04, 109, 152, 155, 156D, 18, 31, 36, 44, 52, 93, DRCB, BD"
  },
  {
    "StopId": 200,
    "Code": "Q1 075",
    "Name": "Tòa án Nhân dân Thành Phố",
    "StopType": "Nhà chờ",
    "Zone": "Quận 1",
    "Ward": null,
    "AddressNo": "131",
    "Street": "Nam Kỳ Khởi Nghĩa",
    "SupportDisability": "",
    "Status": "Đang khai thác",
    "Lng": 106.698647,
    "Lat": 10.776052,
    "Search": "TaNdTP 131 NKKN",
    "Routes": "04, 109, 152, 155, 18, 31, 36, 52, 72-2B, 93, DRCB, BD"
  },
  {
    "StopId": 201,
    "Code": "Q1 077",
    "Name": "Trường CĐKT Cao Thắng",
    "StopType": "Trụ dừng",
    "Zone": "Quận 1",
    "Ward": null,
    "AddressNo": "Đối diện 86",
    "Street": "Nam Kỳ Khởi Nghĩa",
    "SupportDisability": "",
    "Status": "Đang khai thác",
    "Lng": 106.700851,
    "Lat": 10.771416,
    "Search": "TCCT Dd86 NKKN",
    "Routes": "04, 109, 152, 18, 31, 36, 44, 52, 93"
  },
  {
    "StopId": 204,
    "Code": "Q12 051",
    "Name": "Ga ra Thanh Hậu",
    "StopType": "Trụ dừng",
    "Zone": "Quận 12",
    "Ward": null,
    "AddressNo": "517-523",
    "Street": "Hà Huy Giáp",
    "SupportDisability": "",
    "Status": "Đang khai thác",
    "Lng": 106.67672,
    "Lat": 10.875074,
    "Search": "GrTH 517-523 HHG",
    "Routes": "03, 58"
  },
  {
    "StopId": 205,
    "Code": "Q12 052",
    "Name": "Vườn kiểng Quang Dũng",
    "StopType": "Trụ dừng",
    "Zone": "Quận 12",
    "Ward": null,
    "AddressNo": "59/4",
    "Street": "Hà Huy Giáp",
    "SupportDisability": "",
    "Status": "Đang khai thác",
    "Lng": 106.676785,
    "Lat": 10.871977,
    "Search": "VkQD 59/4 HHG",
    "Routes": "03, 58"
  },
  {
    "StopId": 206,
    "Code": "Q12 053",
    "Name": "Cây xăng Tài Lộc",
    "StopType": "Ô sơn",
    "Zone": "Quận 12",
    "Ward": null,
    "AddressNo": "331",
    "Street": "Hà Huy Giáp",
    "SupportDisability": "",
    "Status": "Đang khai thác",
    "Lng": 106.678233,
    "Lat": 10.868015,
    "Search": "CxTL 331 HHG",
    "Routes": "03, 58"
  },
  {
    "StopId": 207,
    "Code": "Q12 054",
    "Name": "Đình thần Giao Khẩu",
    "StopType": "Trụ dừng",
    "Zone": "Quận 12",
    "Ward": null,
    "AddressNo": "297",
    "Street": "Hà Huy Giáp",
    "SupportDisability": "",
    "Status": "Đang khai thác",
    "Lng": 106.680341,
    "Lat": 10.864886,
    "Search": "DtGK 297 HHG",
    "Routes": "03, 58"
  },
  {
    "StopId": 208,
    "Code": "Q12 055",
    "Name": "Ngã tư Ga",
    "StopType": "Trụ dừng",
    "Zone": "Quận 12",
    "Ward": null,
    "AddressNo": "141-143A",
    "Street": "Hà Huy Giáp",
    "SupportDisability": "",
    "Status": "Đang khai thác",
    "Lng": 106.679649,
    "Lat": 10.857984,
    "Search": "NtG 141-143A HHG",
    "Routes": "03, 161, 32, 59"
  },
  {
    "StopId": 209,
    "Code": "QGV 112",
    "Name": "Cầu An Lộc",
    "StopType": "Trụ dừng",
    "Zone": "Quận Gò Vấp",
    "Ward": null,
    "AddressNo": "523-525",
    "Street": "Nguyễn Oanh",
    "SupportDisability": "",
    "Status": "Đang khai thác",
    "Lng": 106.678539,
    "Lat": 10.848838,
    "Search": "CAL 523-525 NO",
    "Routes": "03, 161, 32, 59"
  },
  {
    "StopId": 210,
    "Code": "QGV 113",
    "Name": "Bến Đò",
    "StopType": "Trụ dừng",
    "Zone": "Quận Gò Vấp",
    "Ward": null,
    "AddressNo": "451",
    "Street": "Nguyễn Oanh",
    "SupportDisability": "",
    "Status": "Đang khai thác",
    "Lng": 106.67826,
    "Lat": 10.847015,
    "Search": "BD 451 NO",
    "Routes": "03, 161, 32, 59"
  },
  {
    "StopId": 211,
    "Code": "Q12 056",
    "Name": "Nhà hàng Bến Xưa",
    "StopType": "Trụ dừng",
    "Zone": "Quận 12",
    "Ward": null,
    "AddressNo": "205",
    "Street": "Hà Huy Giáp",
    "SupportDisability": "",
    "Status": "Đang khai thác",
    "Lng": 106.679006,
    "Lat": 10.853474,
    "Search": "NhBX 205 HHG",
    "Routes": "03, 161, 32, 59"
  },
  {
    "StopId": 212,
    "Code": "QGV 114",
    "Name": "Bưu điện An Nhơn",
    "StopType": "Trụ dừng",
    "Zone": "Quận Gò Vấp",
    "Ward": null,
    "AddressNo": "357",
    "Street": "Nguyễn Oanh",
    "SupportDisability": "",
    "Status": "Đang khai thác",
    "Lng": 106.677214,
    "Lat": 10.843975,
    "Search": "BdAN 357 NO",
    "Routes": "03, 161, 32, 59"
  },
  {
    "StopId": 213,
    "Code": "Q12 033",
    "Name": "Ngã tư Ga",
    "StopType": "Trụ dừng",
    "Zone": "Quận 12",
    "Ward": null,
    "AddressNo": "154",
    "Street": "Hà Huy Giáp",
    "SupportDisability": "",
    "Status": "Đang khai thác",
    "Lng": 106.679907,
    "Lat": 10.857331,
    "Search": "NtG 154 HHG",
    "Routes": "03, 161, 32, 59"
  },
  {
    "StopId": 214,
    "Code": "QGV 115",
    "Name": "Ngã tư An Nhơn",
    "StopType": "Trụ dừng",
    "Zone": "Quận Gò Vấp",
    "Ward": null,
    "AddressNo": "257",
    "Street": "Nguyễn Oanh",
    "SupportDisability": "",
    "Status": "Đang khai thác",
    "Lng": 106.676313,
    "Lat": 10.841436,
    "Search": "NtAN 257 NO",
    "Routes": "03, 59"
  },
  {
    "StopId": 215,
    "Code": "QGV 116",
    "Name": "Đài Liệt sĩ",
    "StopType": "Trụ dừng",
    "Zone": "Quận Gò Vấp",
    "Ward": null,
    "AddressNo": "197",
    "Street": "Nguyễn Oanh",
    "SupportDisability": "",
    "Status": "Đang khai thác",
    "Lng": 106.675707,
    "Lat": 10.839518,
    "Search": "DLs 197 NO",
    "Routes": "03, 59"
  },
  {
    "StopId": 216,
    "Code": "QGV 117",
    "Name": "Trường Vinhempic",
    "StopType": "Nhà chờ",
    "Zone": "Quận Gò Vấp",
    "Ward": null,
    "AddressNo": "189 (đối diện 234)",
    "Street": "Nguyễn Oanh",
    "SupportDisability": "",
    "Status": "Đang khai thác",
    "Lng": 106.675395,
    "Lat": 10.836978,
    "Search": "TV 189(d234) NO",
    "Routes": "03, 59"
  },
  {
    "StopId": 217,
    "Code": "QGV 119",
    "Name": "Ngã tư Phan Văn Trị",
    "StopType": "Trụ dừng",
    "Zone": "Quận Gò Vấp",
    "Ward": null,
    "AddressNo": "93 (2A)",
    "Street": "Nguyễn Oanh",
    "SupportDisability": "",
    "Status": "Đang khai thác",
    "Lng": 106.676919,
    "Lat": 10.83163,
    "Search": "NtPVT 93( NO",
    "Routes": "03, 59"
  },
  {
    "StopId": 218,
    "Code": "QGV 118",
    "Name": "Cư xá Lam Sơn",
    "StopType": "Nhà chờ",
    "Zone": "Quận Gò Vấp",
    "Ward": null,
    "AddressNo": "189 (đối diện A4)",
    "Street": "Nguyễn Oanh",
    "SupportDisability": "",
    "Status": "Đang khai thác",
    "Lng": 106.675535,
    "Lat": 10.834939,
    "Search": "CxLS 189(dA NO",
    "Routes": "03, 59"
  },
  {
    "StopId": 219,
    "Code": "QGV 121",
    "Name": "Cầu vượt ngã sáu Gò Vấp",
    "StopType": "Trụ dừng",
    "Zone": "Quận Gò Vấp",
    "Ward": null,
    "AddressNo": "1001",
    "Street": "Nguyễn Kiệm",
    "SupportDisability": "",
    "Status": "Đang khai thác",
    "Lng": 106.678968,
    "Lat": 10.823738,
    "Search": "CvnsGV 1001 NK",
    "Routes": "03, 07, 103, 148, 55, 59"
  },
  {
    "StopId": 220,
    "Code": "QGV 120",
    "Name": "Cầu vượt ngã sáu Gò Vấp",
    "StopType": "Trụ dừng",
    "Zone": "Quận Gò Vấp",
    "Ward": null,
    "AddressNo": "27-29",
    "Street": "Nguyễn Oanh",
    "SupportDisability": "",
    "Status": "Đang khai thác",
    "Lng": 106.678839,
    "Lat": 10.828532,
    "Search": "CvnsGV 27-29 NO",
    "Routes": "03, 59"
  },
  {
    "StopId": 221,
    "Code": "QGV 123",
    "Name": "Bệnh Viện 175",
    "StopType": "Trụ dừng",
    "Zone": "Quận Gò Vấp",
    "Ward": null,
    "AddressNo": "883-885",
    "Street": "Nguyễn Kiệm",
    "SupportDisability": "",
    "Status": "Đang khai thác",
    "Lng": 106.678727,
    "Lat": 10.820044,
    "Search": "BV175 883-885 NK",
    "Routes": "03, 07, 103, 148, 55, 59"
  },
  {
    "StopId": 222,
    "Code": "QGV 122",
    "Name": "Xóm Cháy",
    "StopType": "Trụ dừng",
    "Zone": "Quận Gò Vấp",
    "Ward": null,
    "AddressNo": "629B",
    "Street": "Nguyễn Kiệm",
    "SupportDisability": "",
    "Status": "Đã hủy",
    "Lng": 106.678743,
    "Lat": 10.821894,
    "Search": "XC 629B NK",
    "Routes": "59"
  },
  {
    "StopId": 223,
    "Code": "QGV 124",
    "Name": "Chợ Tân Sơn Nhất",
    "StopType": "Trụ dừng",
    "Zone": "Quận Gò Vấp",
    "Ward": null,
    "AddressNo": "79-81",
    "Street": "Nguyễn Kiệm",
    "SupportDisability": "",
    "Status": "Đang khai thác",
    "Lng": 106.678598,
    "Lat": 10.816772,
    "Search": "CTSN 79-81 NK",
    "Routes": "03, 07, 103, 148, 55, 59"
  },
  {
    "StopId": 224,
    "Code": "QPN 034",
    "Name": "Đầu công viên Gia Định",
    "StopType": "Nhà chờ",
    "Zone": "Quận Phú Nhuận",
    "Ward": null,
    "AddressNo": "Rạp xiếc",
    "Street": "Hoàng Minh Giám",
    "SupportDisability": "",
    "Status": "Đang khai thác",
    "Lng": 106.677681,
    "Lat": 10.813442,
    "Search": "DcvGD Rx HMG",
    "Routes": "03, 07, 148, 50, 55, 59"
  },
  {
    "StopId": 225,
    "Code": "QPN 035",
    "Name": "Cuối công viên Gia Định",
    "StopType": "Nhà chờ",
    "Zone": "Quận Phú Nhuận",
    "Ward": null,
    "AddressNo": "Đối diện số 5",
    "Street": "Hoàng Minh Giám",
    "SupportDisability": "",
    "Status": "Đang khai thác",
    "Lng": 106.674741,
    "Lat": 10.809906,
    "Search": "CcvGD Dds5 HMG",
    "Routes": "03, 07, 148, 50, 55, 59"
  },
  {
    "StopId": 226,
    "Code": "QPN 053",
    "Name": "Đầu Đường Đào Duy Anh",
    "StopType": "Trụ dừng",
    "Zone": "Quận Phú Nhuận",
    "Ward": null,
    "AddressNo": "155",
    "Street": "Đào Duy Anh",
    "SupportDisability": "",
    "Status": "Đang khai thác",
    "Lng": 106.674057,
    "Lat": 10.807978,
    "Search": "DDDDA 155 DDA",
    "Routes": "03, 07, 55"
  },
  {
    "StopId": 227,
    "Code": "QPN 024",
    "Name": "Tháp Nước",
    "StopType": "Trụ dừng",
    "Zone": "Quận Phú Nhuận",
    "Ward": null,
    "AddressNo": "43B",
    "Street": "Hồ Văn Huê",
    "SupportDisability": "",
    "Status": "Đang khai thác",
    "Lng": 106.676366,
    "Lat": 10.802434,
    "Search": "TN 43B HVH",
    "Routes": "03, 07, 55"
  },
  {
    "StopId": 228,
    "Code": "QPN 054",
    "Name": "Cuối Đường Đào Duy Anh",
    "StopType": "Nhà chờ",
    "Zone": "Quận Phú Nhuận",
    "Ward": null,
    "AddressNo": "7-9",
    "Street": "Đào Duy Anh",
    "SupportDisability": "",
    "Status": "Đang khai thác",
    "Lng": 106.677177,
    "Lat": 10.805891,
    "Search": "CDDDA 7-9 DDA",
    "Routes": "03, 07, 55"
  },
  {
    "StopId": 229,
    "Code": "QPN 025",
    "Name": "Trung tâm hội nghị tiệc cưới White Palace",
    "StopType": "Trụ dừng",
    "Zone": "Quận Phú Nhuận",
    "Ward": null,
    "AddressNo": "1B",
    "Street": "Hồ Văn Huê",
    "SupportDisability": "",
    "Status": "Đang khai thác",
    "Lng": 106.675025,
    "Lat": 10.800074,
    "Search": "TthntcWP 1B HVH",
    "Routes": "03, 07, 55"
  },
  {
    "StopId": 230,
    "Code": "QPN 023",
    "Name": "Ngã ba Đào Duy Anh",
    "StopType": "Trụ dừng",
    "Zone": "Quận Phú Nhuận",
    "Ward": null,
    "AddressNo": "129",
    "Street": "Hồ Văn Huê",
    "SupportDisability": "",
    "Status": "Đang khai thác",
    "Lng": 106.677729,
    "Lat": 10.804858,
    "Search": "NbDDA 129 HVH",
    "Routes": "03, 07, 55"
  },
  {
    "StopId": 231,
    "Code": "Q3 029",
    "Name": "Trần Quang Khải",
    "StopType": "Trụ dừng",
    "Zone": "Quận 3",
    "Ward": "Phường 08",
    "AddressNo": "423 A",
    "Street": "Hai Bà Trưng",
    "SupportDisability": "",
    "Status": "Đang khai thác",
    "Lng": 106.68795,
    "Lat": 10.790939,
    "Search": "TQK 423A HBT",
    "Routes": "03"
  },
  {
    "StopId": 232,
    "Code": "QPN 009",
    "Name": "Ngã tư Phú Nhuận",
    "StopType": "Trụ dừng",
    "Zone": "Quận Phú Nhuận",
    "Ward": null,
    "AddressNo": "59",
    "Street": "Hoàng Văn Thụ",
    "SupportDisability": "",
    "Status": "Đang khai thác",
    "Lng": 106.679354,
    "Lat": 10.799088,
    "Search": "NtPN 59 HVT",
    "Routes": "03, 08, 104, 55, 64"
  },
  {
    "StopId": 233,
    "Code": "Q3 031",
    "Name": "Công viên Lê Văn Tám",
    "StopType": "Trụ dừng",
    "Zone": "Quận 3",
    "Ward": "Phường 06",
    "AddressNo": "243",
    "Street": "Hai Bà Trưng",
    "SupportDisability": "",
    "Status": "Đang khai thác",
    "Lng": 106.692653,
    "Lat": 10.787174,
    "Search": "CvLVT 243 HBT",
    "Routes": "03, 18, 31"
  },
  {
    "StopId": 234,
    "Code": "Q3 030",
    "Name": "Chợ Tân Định",
    "StopType": "Trụ dừng",
    "Zone": "Quận 3",
    "Ward": null,
    "AddressNo": "295",
    "Street": "Hai Bà Trưng",
    "SupportDisability": "",
    "Status": "Đang khai thác",
    "Lng": 106.690445,
    "Lat": 10.788972,
    "Search": "CTD 295 HBT",
    "Routes": "03, 31, 36"
  },
  {
    "StopId": 235,
    "Code": "Q3 032",
    "Name": "Trần Cao Vân",
    "StopType": "Trụ dừng",
    "Zone": "Quận 3",
    "Ward": null,
    "AddressNo": "157",
    "Street": "Hai Bà Trưng",
    "SupportDisability": "",
    "Status": "Đang khai thác",
    "Lng": 106.696625,
    "Lat": 10.784023,
    "Search": "TCV 157 HBT",
    "Routes": "03, 18"
  },
  {
    "StopId": 236,
    "Code": "Q1 065",
    "Name": "Lê Duẩn",
    "StopType": "Nhà chờ",
    "Zone": "Quận 1",
    "Ward": "Phường Bến Nghé",
    "AddressNo": "Đối diện Lãnh sự quán Pháp",
    "Street": "Hai Bà Trưng",
    "SupportDisability": "",
    "Status": "Đang khai thác",
    "Lng": 106.69902,
    "Lat": 10.78191,
    "Search": "LD DdLsqP HBT",
    "Routes": "03, 18"
  },
  {
    "StopId": 237,
    "Code": "Q1 066",
    "Name": "Bệnh viện Nhi Đồng 2",
    "StopType": "Nhà chờ",
    "Zone": "Quận 1",
    "Ward": null,
    "AddressNo": "Kế 115",
    "Street": "Hai Bà Trưng",
    "SupportDisability": "",
    "Status": "Đang khai thác",
    "Lng": 106.701744,
    "Lat": 10.779385,
    "Search": "BvND2 K115 HBT",
    "Routes": "03, 19, 45"
  },
  {
    "StopId": 238,
    "Code": "Q1 067",
    "Name": "Nhà Hát Thành Phố",
    "StopType": "Trụ dừng",
    "Zone": "Quận 1",
    "Ward": null,
    "AddressNo": "101",
    "Street": "Hai Bà Trưng",
    "SupportDisability": "",
    "Status": "Đang khai thác",
    "Lng": 106.70351,
    "Lat": 10.777873,
    "Search": "NHTP 101 HBT",
    "Routes": "03, 19, 45"
  },
  {
    "StopId": 239,
    "Code": "Q1 068",
    "Name": "Công Trường Mê Linh",
    "StopType": "Trụ dừng",
    "Zone": "Quận 1",
    "Ward": null,
    "AddressNo": "Đối diện 2",
    "Street": "Hai Bà Trưng",
    "SupportDisability": "",
    "Status": "Đang khai thác",
    "Lng": 106.705635,
    "Lat": 10.775976,
    "Search": "CTML Dd2 HBT",
    "Routes": "03, 19, 45"
  },
  {
    "StopId": 241,
    "Code": "Q1 105",
    "Name": "Chùa Bà Ấn",
    "StopType": "Trụ dừng",
    "Zone": "Quận 1",
    "Ward": null,
    "AddressNo": "42",
    "Street": "Trương Định",
    "SupportDisability": "",
    "Status": "Đang khai thác",
    "Lng": 106.695839,
    "Lat": 10.772419,
    "Search": "CBA 42 TD",
    "Routes": "156V, 44, DL02"
  },
  {
    "StopId": 242,
    "Code": "Q1 092",
    "Name": "Nhà Văn Hóa Lao Động",
    "StopType": "Nhà chờ",
    "Zone": "Quận 1",
    "Ward": null,
    "AddressNo": "Đối diện số 138",
    "Street": "Nguyễn Thị Minh Khai",
    "SupportDisability": "",
    "Status": "Đang khai thác",
    "Lng": 106.692757,
    "Lat": 10.777097,
    "Search": "NVHLD Dds138 NTMK",
    "Routes": "05, 06, 14, 156D, 28"
  },
  {
    "StopId": 243,
    "Code": "Q3 082",
    "Name": "Đại học Kiến Trúc",
    "StopType": "Nhà chờ",
    "Zone": "Quận 3",
    "Ward": "Phường 06",
    "AddressNo": "194 D",
    "Street": "Pasteur",
    "SupportDisability": "Có",
    "Status": "Đang khai thác",
    "Lng": 106.694579,
    "Lat": 10.781804,
    "Search": "DhKT 194D P",
    "Routes": "04, 109, 152, 72-2B, 93"
  },
  {
    "StopId": 244,
    "Code": "Q3 083",
    "Name": "Điện Biên Phủ",
    "StopType": "Nhà chờ",
    "Zone": "Quận 3",
    "Ward": "Phường 06",
    "AddressNo": "214",
    "Street": "Pasteur",
    "SupportDisability": "Có",
    "Status": "Đang khai thác",
    "Lng": 106.692749,
    "Lat": 10.783419,
    "Search": "DBP 214 P",
    "Routes": "04, 109, 152, 72-2B, 93"
  },
  {
    "StopId": 245,
    "Code": "Q3 084",
    "Name": "Võ Thị Sáu",
    "StopType": "Trụ dừng",
    "Zone": "Quận 3",
    "Ward": null,
    "AddressNo": "232",
    "Street": "Pasteur",
    "SupportDisability": "",
    "Status": "Đang khai thác",
    "Lng": 106.691145,
    "Lat": 10.784924,
    "Search": "VTS 232 P",
    "Routes": "04, 109, 152, 72-2B"
  },
  {
    "StopId": 246,
    "Code": "Q3 101",
    "Name": "Nhà thiếu nhi thành phố",
    "StopType": "Nhà chờ",
    "Zone": "Quận 3",
    "Ward": null,
    "AddressNo": "Đối diện 153 A-B (ngã 4 NKKN)",
    "Street": "Võ Thị Sáu",
    "SupportDisability": "",
    "Status": "Đang khai thác",
    "Lng": 106.689613,
    "Lat": 10.785583,
    "Search": "Ntntp Dd153A(4N VTS",
    "Routes": "04, 10, 109, 152, 30, 91"
  },
  {
    "StopId": 247,
    "Code": "Q3 048",
    "Name": "Viện Pasteur",
    "StopType": "Nhà chờ",
    "Zone": "Quận 3",
    "Ward": null,
    "AddressNo": "252 (Đối diện 175)",
    "Street": "Nam Kỳ Khởi Nghĩa",
    "SupportDisability": "",
    "Status": "Đang khai thác",
    "Lng": 106.688683,
    "Lat": 10.785577,
    "Search": "VP 252(d175) NKKN",
    "Routes": "04, 109, 152"
  },
  {
    "StopId": 248,
    "Code": "Q3 049",
    "Name": "Trần Quốc Toản",
    "StopType": "Trụ dừng",
    "Zone": "Quận 3",
    "Ward": "Phường 08",
    "AddressNo": "260A",
    "Street": "Nam Kỳ Khởi Nghĩa",
    "SupportDisability": "",
    "Status": "Đang khai thác",
    "Lng": 106.687133,
    "Lat": 10.787047,
    "Search": "TQT 260A NKKN",
    "Routes": "04, 109, 152, 72-2B"
  },
  {
    "StopId": 249,
    "Code": "Q3 051",
    "Name": "Chùa Vĩnh Nghiêm",
    "StopType": "Trụ dừng",
    "Zone": "Quận 3",
    "Ward": null,
    "AddressNo": "382E",
    "Street": "Nam Kỳ Khởi Nghĩa",
    "SupportDisability": "",
    "Status": "Đang khai thác",
    "Lng": 106.683125,
    "Lat": 10.790694,
    "Search": "CVN 382E NKKN",
    "Routes": "04, 109, 152, 72-2B"
  },
  {
    "StopId": 250,
    "Code": "Q3 050",
    "Name": "Lý Chính Thắng",
    "StopType": "Trụ dừng",
    "Zone": "Quận 3",
    "Ward": null,
    "AddressNo": "288 B7",
    "Street": "Nam Kỳ Khởi Nghĩa",
    "SupportDisability": "",
    "Status": "Đang khai thác",
    "Lng": 106.684746,
    "Lat": 10.789245,
    "Search": "LCT 288B NKKN",
    "Routes": "04, 109, 152, 72-2B"
  },
  {
    "StopId": 251,
    "Code": "QPN 048",
    "Name": "Ngã tư Trần Huy Liệu",
    "StopType": "Trụ dừng",
    "Zone": "Quận Phú Nhuận",
    "Ward": null,
    "AddressNo": "40",
    "Street": "Nguyễn Văn Trỗi",
    "SupportDisability": "",
    "Status": "Đang khai thác",
    "Lng": 106.679236,
    "Lat": 10.793555,
    "Search": "NtTHL 40 NVT",
    "Routes": "04, 109, 152, 72-2B"
  },
  {
    "StopId": 252,
    "Code": "QPN 049",
    "Name": "Trung tâm văn hóa Quận Phú Nhuận",
    "StopType": "Trụ dừng",
    "Zone": "Quận Phú Nhuận",
    "Ward": null,
    "AddressNo": "68",
    "Street": "Nguyễn Văn Trỗi",
    "SupportDisability": "",
    "Status": "Đang khai thác",
    "Lng": 106.676093,
    "Lat": 10.795421,
    "Search": "TtvhQPN 68 NVT",
    "Routes": "04, 07, 109, 152, 72-2B"
  },
  {
    "StopId": 253,
    "Code": "QPN 050",
    "Name": "Cổng xe lửa",
    "StopType": "Trụ dừng",
    "Zone": "Quận Phú Nhuận",
    "Ward": null,
    "AddressNo": "104",
    "Street": "Nguyễn Văn Trỗi",
    "SupportDisability": "",
    "Status": "Đang khai thác",
    "Lng": 106.673797,
    "Lat": 10.79677,
    "Search": "Cxl 104 NVT",
    "Routes": "04, 07, 109, 152, 72-2B"
  },
  {
    "StopId": 254,
    "Code": "QPN 051",
    "Name": "Bệnh viện Quận Phú Nhuận",
    "StopType": "Trụ dừng",
    "Zone": "Quận Phú Nhuận",
    "Ward": null,
    "AddressNo": "142",
    "Street": "Nguyễn Văn Trỗi",
    "SupportDisability": "",
    "Status": "Đang khai thác",
    "Lng": 106.670793,
    "Lat": 10.798525,
    "Search": "BvQPN 142 NVT",
    "Routes": "04, 07, 109, 152, 72-2B"
  },
  {
    "StopId": 255,
    "Code": "QPN 052 ",
    "Name": "Cây xăng Quân khu 7",
    "StopType": "Nhà chờ",
    "Zone": "Quận Phú Nhuận",
    "Ward": null,
    "AddressNo": "180",
    "Street": "Nguyễn Văn Trỗi",
    "SupportDisability": "",
    "Status": "Đang khai thác",
    "Lng": 106.66891,
    "Lat": 10.799642,
    "Search": "CxQk7 180 NVT",
    "Routes": "04, 07, 109, 152, 72-2B"
  },
  {
    "StopId": 256,
    "Code": "QTB 099",
    "Name": "Cổng trước SVĐ Quân Khu 7",
    "StopType": "Nhà chờ",
    "Zone": "Quận Tân Bình",
    "Ward": null,
    "AddressNo": "A2 (Sân vận động Quân khu 7)",
    "Street": "Phan Đình Giót",
    "SupportDisability": "",
    "Status": "Đang khai thác",
    "Lng": 106.66678,
    "Lat": 10.800848,
    "Search": "CtSQK7 A(vdQk7) PDG",
    "Routes": "04, 07, 08, 104, 109, 152, 63-1, 64, 72-2B"
  },
  {
    "StopId": 257,
    "Code": "QTB 108",
    "Name": "Công viên Hoàng Văn Thụ",
    "StopType": "Nhà chờ",
    "Zone": "Quận Tân Bình",
    "Ward": null,
    "AddressNo": "Công viên Hoàng Văn Thụ",
    "Street": "Phan Thúc Duyện",
    "SupportDisability": "",
    "Status": "Tạm ngưng khai thác",
    "Lng": 106.664221,
    "Lat": 10.802403,
    "Search": "CvHVT CvHVT PTD",
    "Routes": ""
  },
  {
    "StopId": 258,
    "Code": "QTB 107",
    "Name": "Vòng xoay Lăng Cha Cả",
    "StopType": "Nhà chờ",
    "Zone": "Quận Tân Bình",
    "Ward": null,
    "AddressNo": "20",
    "Street": "Trần Quốc Hoàn",
    "SupportDisability": "",
    "Status": "Đang khai thác",
    "Lng": 106.662312,
    "Lat": 10.801365,
    "Search": "VxLCC 20 TQH",
    "Routes": "04, 08, 103, 104, 148, 152, 50, 59, 63-1, 64, 72-2B"
  },
  {
    "StopId": 259,
    "Code": "QTB 110",
    "Name": "Siêu thị Maximark Cộng Hòa",
    "StopType": "Ô sơn",
    "Zone": "Quận Tân Bình",
    "Ward": null,
    "AddressNo": "60",
    "Street": "Cộng Hòa",
    "SupportDisability": "",
    "Status": "Đang khai thác",
    "Lng": 106.659168,
    "Lat": 10.801038,
    "Search": "StMCH 60 CH",
    "Routes": "04, 104, 145, 28, 63-1"
  },
  {
    "StopId": 260,
    "Code": "QTB 111",
    "Name": "Nhà hát Quân Đội",
    "StopType": "Trụ dừng",
    "Zone": "Quận Tân Bình",
    "Ward": null,
    "AddressNo": "138 (Kế nhà hát Quân đội)",
    "Street": "Cộng Hòa",
    "SupportDisability": "",
    "Status": "Đang khai thác",
    "Lng": 106.656754,
    "Lat": 10.801238,
    "Search": "NhQD 138(nhQd CH",
    "Routes": "04, 104, 145, 28, 63-1"
  },
  {
    "StopId": 261,
    "Code": "QTB 112",
    "Name": "Ngân hàng Quân đội",
    "StopType": "Nhà chờ",
    "Zone": "Quận Tân Bình",
    "Ward": null,
    "AddressNo": "Tiệc cưới Hương Sen",
    "Street": "Cộng Hòa",
    "SupportDisability": "",
    "Status": "Đang khai thác",
    "Lng": 106.654817,
    "Lat": 10.801412,
    "Search": "NhQd TcHS CH",
    "Routes": "04, 104, 145, 28, 63-1"
  },
  {
    "StopId": 262,
    "Code": "QTB 113",
    "Name": "Công ty Lô Hội",
    "StopType": "Trụ dừng",
    "Zone": "Quận Tân Bình",
    "Ward": null,
    "AddressNo": "184",
    "Street": "Cộng Hòa",
    "SupportDisability": "",
    "Status": "Đang khai thác",
    "Lng": 106.651127,
    "Lat": 10.801728,
    "Search": "CtLH 184 CH",
    "Routes": "04, 104, 145, 28, 63-1"
  },
  {
    "StopId": 263,
    "Code": "QTB 114",
    "Name": "Ngã tư Hoàng Hoa Thám",
    "StopType": "Trụ dừng",
    "Zone": "Quận Tân Bình",
    "Ward": null,
    "AddressNo": "304",
    "Street": "Cộng Hòa",
    "SupportDisability": "",
    "Status": "Đang khai thác",
    "Lng": 106.646953,
    "Lat": 10.802102,
    "Search": "NtHHT 304 CH",
    "Routes": "04, 104, 145, 28, 63-1"
  },
  {
    "StopId": 264,
    "Code": "QTB 115",
    "Name": "Ngã ba Bình Giã",
    "StopType": "Trụ dừng",
    "Zone": "Quận Tân Bình",
    "Ward": null,
    "AddressNo": "394-396",
    "Street": "Cộng Hòa",
    "SupportDisability": "",
    "Status": "Đang khai thác",
    "Lng": 106.644512,
    "Lat": 10.802276,
    "Search": "NbBG 394-396 CH",
    "Routes": "04, 104, 145, 28, 63-1"
  },
  {
    "StopId": 265,
    "Code": "QTB 116",
    "Name": "ETown",
    "StopType": "Trụ dừng",
    "Zone": "Quận Tân Bình",
    "Ward": null,
    "AddressNo": "496",
    "Street": "Cộng Hòa",
    "SupportDisability": "",
    "Status": "Đang khai thác",
    "Lng": 106.640967,
    "Lat": 10.802571,
    "Search": "E 496 CH",
    "Routes": "04, 104, 145, 28, 63-1"
  },
  {
    "StopId": 266,
    "Code": "QTB 117",
    "Name": "Thượng Uyển",
    "StopType": "Nhà chờ",
    "Zone": "Quận Tân Bình",
    "Ward": null,
    "AddressNo": "660 (kế 592)",
    "Street": "Cộng Hòa",
    "SupportDisability": "",
    "Status": "Đang khai thác",
    "Lng": 106.636192,
    "Lat": 10.806313,
    "Search": "TU 660(592) CH",
    "Routes": "04, 104, 145, 28, 63-1"
  },
  {
    "StopId": 267,
    "Code": "QTB 076",
    "Name": "Ngã ba Chế Lan Viên",
    "StopType": "Nhà chờ",
    "Zone": "Quận Tân Bình",
    "Ward": null,
    "AddressNo": "Đối diện đường Chế Lan Viên",
    "Street": "Trường Chinh",
    "SupportDisability": "",
    "Status": "Đang khai thác",
    "Lng": 106.633349,
    "Lat": 10.812204,
    "Search": "NbCLV DddCLV TC",
    "Routes": "04, 104, 13, 145, 23, 27, 28, 62, 65, 94"
  },
  {
    "StopId": 268,
    "Code": "QTB 075",
    "Name": "Mũi tàu Cộng Hòa",
    "StopType": "Trụ dừng",
    "Zone": "Quận Tân Bình",
    "Ward": null,
    "AddressNo": "19B1",
    "Street": "Trường Chinh",
    "SupportDisability": "",
    "Status": "Đang khai thác",
    "Lng": 106.634638,
    "Lat": 10.808314,
    "Search": "MtCH 19B1 TC",
    "Routes": "04, 104, 13, 145, 16, 23, 27, 28, 62, 63-1, 65, 94"
  },
  {
    "StopId": 269,
    "Code": "QTB 077",
    "Name": "Tân Sơn",
    "StopType": "Nhà chờ",
    "Zone": "Quận Tân Bình",
    "Ward": null,
    "AddressNo": "720",
    "Street": "Trường Chinh",
    "SupportDisability": "",
    "Status": "Đã hủy",
    "Lng": 106.632584,
    "Lat": 10.814638,
    "Search": "TS 720 TC",
    "Routes": ""
  },
  {
    "StopId": 270,
    "Code": "QTB 078",
    "Name": "UBND Phường 15",
    "StopType": "Nhà chờ",
    "Zone": "Quận Tân Bình",
    "Ward": null,
    "AddressNo": "850",
    "Street": "Trường Chinh",
    "SupportDisability": "",
    "Status": "Đang khai thác",
    "Lng": 106.631461,
    "Lat": 10.818332,
    "Search": "UP15 850 TC",
    "Routes": "04, 104, 13, 145, 23, 27, 62, 65, 94"
  },
  {
    "StopId": 271,
    "Code": "QTB 079",
    "Name": "Khu Công Nghiệp Tân Bình",
    "StopType": "Nhà chờ",
    "Zone": "Quận Tân Bình",
    "Ward": null,
    "AddressNo": "932",
    "Street": "Trường Chinh",
    "SupportDisability": "",
    "Status": "Đang khai thác",
    "Lng": 106.630254,
    "Lat": 10.822452,
    "Search": "KCNTB 932 TC",
    "Routes": "04, 104, 13, 145, 23, 27, 32, 41, 62, 65, 94"
  },
  {
    "StopId": 272,
    "Code": "Q12 128",
    "Name": "Cầu Tham Lương - Siêu thị Thiên Hòa",
    "StopType": "Nhà chờ",
    "Zone": "Quận 12",
    "Ward": null,
    "AddressNo": "60A-B (1/17A)",
    "Street": "Trường Chinh",
    "SupportDisability": "",
    "Status": "Đang khai thác",
    "Lng": 106.625828,
    "Lat": 10.826957,
    "Search": "CTL-StTH 60A-B( TC",
    "Routes": "04, 104, 13, 145, 23, 27, 41, 62, 65, 94"
  },
  {
    "StopId": 273,
    "Code": "Q12 129",
    "Name": "Chùa Vĩnh Phước",
    "StopType": "Nhà chờ",
    "Zone": "Quận 12",
    "Ward": null,
    "AddressNo": "110 (189/4)",
    "Street": "Trường Chinh",
    "SupportDisability": "",
    "Status": "Đang khai thác",
    "Lng": 106.624594,
    "Lat": 10.828627,
    "Search": "CVP 110( TC",
    "Routes": "04, 104, 13, 145, 27, 41, 65, 94"
  },
  {
    "StopId": 274,
    "Code": "Q12 130",
    "Name": "Chùa Vĩnh Phước",
    "StopType": "Nhà chờ",
    "Zone": "Quận 12",
    "Ward": null,
    "AddressNo": "258",
    "Street": "Trường Chinh",
    "SupportDisability": "",
    "Status": "Đã hủy",
    "Lng": 106.622411,
    "Lat": 10.831989,
    "Search": "CVP 258 TC",
    "Routes": ""
  },
  {
    "StopId": 275,
    "Code": "Q12 132",
    "Name": "Chùa Lạc Quang",
    "StopType": "Nhà chờ",
    "Zone": "Quận 12",
    "Ward": null,
    "AddressNo": "408",
    "Street": "Trường Chinh",
    "SupportDisability": "",
    "Status": "Đang khai thác",
    "Lng": 106.620614,
    "Lat": 10.834781,
    "Search": "CLQ 408 TC",
    "Routes": "04, 104, 13, 145, 27, 41, 65, 94"
  },
  {
    "StopId": 277,
    "Code": "Q12 131",
    "Name": "Bitis",
    "StopType": "Nhà chờ",
    "Zone": "Quận 12",
    "Ward": null,
    "AddressNo": "590 (640)",
    "Street": "Trường Chinh",
    "SupportDisability": "",
    "Status": "Đang khai thác",
    "Lng": 106.618398,
    "Lat": 10.838222,
    "Search": "B 590( TC",
    "Routes": "04, 104, 13, 145, 27, 41, 65, 94"
  },
  {
    "StopId": 278,
    "Code": "BX84",
    "Name": "Bến xe buýt Chợ Lớn - B",
    "StopType": "Bến xe",
    "Zone": "Quận 6",
    "Ward": null,
    "AddressNo": "BẾN XE BUÝT CHỢ LỚN B",
    "Street": "Lê Quang Sung",
    "SupportDisability": "",
    "Status": "Đang khai thác",
    "Lng": 106.65107,
    "Lat": 10.751185,
    "Search": "BxbCL-B BXBCLB LQS",
    "Routes": "101, 145, 23, 61, 62-2, 68, 84"
  },
  {
    "StopId": 279,
    "Code": "Q5 081",
    "Name": "Bệnh viện Chợ Rẫy",
    "StopType": "Nhà chờ",
    "Zone": "Quận 5",
    "Ward": null,
    "AddressNo": "Đối diện 59C",
    "Street": "Thuận Kiều",
    "SupportDisability": "",
    "Status": "Đang khai thác",
    "Lng": 106.65839,
    "Lat": 10.757109,
    "Search": "BvCR Dd59C TK",
    "Routes": "45"
  },
  {
    "StopId": 281,
    "Code": "Q5 043",
    "Name": "Bệnh viện Chợ Rẫy",
    "StopType": "Nhà chờ",
    "Zone": "Quận 5",
    "Ward": null,
    "AddressNo": "201A",
    "Street": "Nguyễn Chí Thanh",
    "SupportDisability": "",
    "Status": "Đang khai thác",
    "Lng": 106.660128,
    "Lat": 10.758079,
    "Search": "BvCR 201A NCT",
    "Routes": "05, 45, 62, 94"
  },
  {
    "StopId": 282,
    "Code": "Q5 044",
    "Name": "Lý Thường Kiệt",
    "StopType": "Trụ dừng",
    "Zone": "Quận 5",
    "Ward": null,
    "AddressNo": "195B",
    "Street": "Nguyễn Chí Thanh",
    "SupportDisability": "",
    "Status": "Đang khai thác",
    "Lng": 106.662006,
    "Lat": 10.758443,
    "Search": "LTK 195B NCT",
    "Routes": "05, 45"
  },